[{"code":"01001","nom":"L'Abergement-Clémenciat","codeDepartement":"01","centre":{"type":"Point","coordinates":[4.9306,46.1517]}},{"code":"01002","nom":"L'Abergement-de-Varey","codeDepartement":"01","centre":{"type":"Point","coordinates":[5.4247,46.0071]}},{"code":"01004","nom":"Ambérieu-en-Bugey","codeDepartement":"01","centre":{"type":"Point","coordinates":[5.3706,45.9575]}},{"code":"01005","nom":"Ambérieux-en-Dombes","codeDepartement":"01","centre":{"type":"Point","coordinates":[4.9119,45.9992]}},{"code":"01006","nom":"Ambléon","codeDepartement":"01","centre":{"type":"Point","coordinates":[5.5928,45.7483]}},{"code":"01007","nom":"Ambronay","codeDepartement":"01","centre":{"type":"Point","coordinates":[5.3627,46.0099]}},{"code":"01008","nom":"Ambutrix","codeDepartement":"01","centre":{"type":"Point","coordinates":[5.3359,45.9347]}},{"code":"01009","nom":"Andert-et-Condon","codeDepartement":"01","centre":{"type":"Point","coordinates":[5.6607,45.7841]}},{"code":"01010","nom":"Anglefort","codeDepartement":"01","centre":{"type":"Point","coordinates":[5.7948,45.9086]}},{"code":"01011","nom":"Apremont","codeDepartement":"01","centre":{"type":"Point","coordinates":[5.6619,46.2045]}},{"code":"01012","nom":"Aranc","codeDepartement":"01","centre":{"type":"Point","coordinates":[5.514,45.9972]}},{"code":"01013","nom":"Arandas","codeDepartement":"01","centre":{"type":"Point","coordinates":[5.4982,45.8885]}},{"code":"01014","nom":"Arbent","codeDepartement":"01","centre":{"type":"Point","coordinates":[5.6879,46.2838]}},{"code":"01015","nom":"Arboys en Bugey","codeDepartement":"01","centre":{"type":"Point","coordinates":[5.6404,45.7189]}},{"code":"01016","nom":"Arbigny","codeDepartement":"01","centre":{"type":"Point","coordinates":[4.9613,46.4808]}},{"code":"01017","nom":"Argis","codeDepartement":"01","centre":{"type":"Point","coordinates":[5.4819,45.9322]}},{"code":"01019","nom":"Armix","codeDepartement":"01","centre":{"type":"Point","coordinates":[5.5837,45.8523]}},{"code":"01021","nom":"Ars-sur-Formans","codeDepartement":"01","centre":{"type":"Point","coordinates":[4.8195,45.9904]}},{"code":"01022","nom":"Artemare","codeDepartement":"01","centre":{"type":"Point","coordinates":[5.692,45.8701]}},{"code":"01023","nom":"Asnières-sur-Saône","codeDepartement":"01","centre":{"type":"Point","coordinates":[4.882,46.3859]}},{"code":"01024","nom":"Attignat","codeDepartement":"01","centre":{"type":"Point","coordinates":[5.1823,46.2858]}},{"code":"01025","nom":"Bâgé-Dommartin","codeDepartement":"01","centre":{"type":"Point","coordinates":[4.9704,46.3277]}},{"code":"01026","nom":"Bâgé-le-Châtel","codeDepartement":"01","centre":{"type":"Point","coordinates":[4.9305,46.3081]}},{"code":"01027","nom":"Balan","codeDepartement":"01","centre":{"type":"Point","coordinates":[5.1076,45.8268]}},{"code":"01028","nom":"Baneins","codeDepartement":"01","centre":{"type":"Point","coordinates":[4.9045,46.1117]}},{"code":"01029","nom":"Beaupont","codeDepartement":"01","centre":{"type":"Point","coordinates":[5.2634,46.4274]}},{"code":"01030","nom":"Beauregard","codeDepartement":"01","centre":{"type":"Point","coordinates":[4.7567,46.0012]}},{"code":"01031","nom":"Bellignat","codeDepartement":"01","centre":{"type":"Point","coordinates":[5.6371,46.2402]}},{"code":"01032","nom":"Béligneux","codeDepartement":"01","centre":{"type":"Point","coordinates":[5.1415,45.8622]}},{"code":"01033","nom":"Valserhône","codeDepartement":"01","centre":{"type":"Point","coordinates":[5.7944,46.1234]}},{"code":"01034","nom":"Belley","codeDepartement":"01","centre":{"type":"Point","coordinates":[5.6927,45.743]}},{"code":"01035","nom":"Belleydoux","codeDepartement":"01","centre":{"type":"Point","coordinates":[5.7816,46.2519]}},{"code":"01036","nom":"Valromey-sur-Séran","codeDepartement":"01","centre":{"type":"Point","coordinates":[5.6626,45.9236]}},{"code":"01037","nom":"Bénonces","codeDepartement":"01","centre":{"type":"Point","coordinates":[5.4834,45.842]}},{"code":"01038","nom":"Bény","codeDepartement":"01","centre":{"type":"Point","coordinates":[5.2789,46.3189]}},{"code":"01040","nom":"Béréziat","codeDepartement":"01","centre":{"type":"Point","coordinates":[5.0431,46.3699]}},{"code":"01041","nom":"Bettant","codeDepartement":"01","centre":{"type":"Point","coordinates":[5.3648,45.9366]}},{"code":"01042","nom":"Bey","codeDepartement":"01","centre":{"type":"Point","coordinates":[4.844,46.2182]}},{"code":"01043","nom":"Beynost","codeDepartement":"01","centre":{"type":"Point","coordinates":[4.9964,45.8359]}},{"code":"01044","nom":"Billiat","codeDepartement":"01","centre":{"type":"Point","coordinates":[5.7632,46.0778]}},{"code":"01045","nom":"Birieux","codeDepartement":"01","centre":{"type":"Point","coordinates":[5.0401,45.9509]}},{"code":"01046","nom":"Biziat","codeDepartement":"01","centre":{"type":"Point","coordinates":[4.9393,46.224]}},{"code":"01047","nom":"Blyes","codeDepartement":"01","centre":{"type":"Point","coordinates":[5.2515,45.8442]}},{"code":"01049","nom":"La Boisse","codeDepartement":"01","centre":{"type":"Point","coordinates":[5.0262,45.8483]}},{"code":"01050","nom":"Boissey","codeDepartement":"01","centre":{"type":"Point","coordinates":[4.9975,46.3723]}},{"code":"01051","nom":"Bolozon","codeDepartement":"01","centre":{"type":"Point","coordinates":[5.4701,46.1971]}},{"code":"01052","nom":"Bouligneux","codeDepartement":"01","centre":{"type":"Point","coordinates":[4.9957,46.0202]}},{"code":"01053","nom":"Bourg-en-Bresse","codeDepartement":"01","centre":{"type":"Point","coordinates":[5.2469,46.2027]}},{"code":"01054","nom":"Bourg-Saint-Christophe","codeDepartement":"01","centre":{"type":"Point","coordinates":[5.1393,45.8842]}},{"code":"01056","nom":"Boyeux-Saint-Jérôme","codeDepartement":"01","centre":{"type":"Point","coordinates":[5.4616,46.0356]}},{"code":"01057","nom":"Boz","codeDepartement":"01","centre":{"type":"Point","coordinates":[4.9166,46.4089]}},{"code":"01058","nom":"Brégnier-Cordon","codeDepartement":"01","centre":{"type":"Point","coordinates":[5.6174,45.6406]}},{"code":"01060","nom":"Brénod","codeDepartement":"01","centre":{"type":"Point","coordinates":[5.6116,46.0791]}},{"code":"01061","nom":"Brens","codeDepartement":"01","centre":{"type":"Point","coordinates":[5.69,45.7163]}},{"code":"01062","nom":"Bressolles","codeDepartement":"01","centre":{"type":"Point","coordinates":[5.0984,45.8714]}},{"code":"01063","nom":"Brion","codeDepartement":"01","centre":{"type":"Point","coordinates":[5.5477,46.1689]}},{"code":"01064","nom":"Briord","codeDepartement":"01","centre":{"type":"Point","coordinates":[5.4832,45.768]}},{"code":"01065","nom":"Buellas","codeDepartement":"01","centre":{"type":"Point","coordinates":[5.1468,46.2116]}},{"code":"01066","nom":"La Burbanche","codeDepartement":"01","centre":{"type":"Point","coordinates":[5.548,45.8629]}},{"code":"01067","nom":"Ceignes","codeDepartement":"01","centre":{"type":"Point","coordinates":[5.4957,46.1258]}},{"code":"01068","nom":"Cerdon","codeDepartement":"01","centre":{"type":"Point","coordinates":[5.4755,46.075]}},{"code":"01069","nom":"Certines","codeDepartement":"01","centre":{"type":"Point","coordinates":[5.2638,46.1336]}},{"code":"01071","nom":"Cessy","codeDepartement":"01","centre":{"type":"Point","coordinates":[6.082,46.3157]}},{"code":"01072","nom":"Ceyzériat","codeDepartement":"01","centre":{"type":"Point","coordinates":[5.3191,46.1822]}},{"code":"01073","nom":"Ceyzérieu","codeDepartement":"01","centre":{"type":"Point","coordinates":[5.7197,45.8368]}},{"code":"01074","nom":"Chalamont","codeDepartement":"01","centre":{"type":"Point","coordinates":[5.1735,46.0149]}},{"code":"01075","nom":"Chaleins","codeDepartement":"01","centre":{"type":"Point","coordinates":[4.7999,46.0361]}},{"code":"01076","nom":"Chaley","codeDepartement":"01","centre":{"type":"Point","coordinates":[5.5408,45.9511]}},{"code":"01077","nom":"Challes-la-Montagne","codeDepartement":"01","centre":{"type":"Point","coordinates":[5.456,46.1237]}},{"code":"01078","nom":"Challex","codeDepartement":"01","centre":{"type":"Point","coordinates":[5.9735,46.1765]}},{"code":"01079","nom":"Champagne-en-Valromey","codeDepartement":"01","centre":{"type":"Point","coordinates":[5.6921,45.9317]}},{"code":"01080","nom":"Champdor-Corcelles","codeDepartement":"01","centre":{"type":"Point","coordinates":[5.5882,46.0371]}},{"code":"01081","nom":"Champfromier","codeDepartement":"01","centre":{"type":"Point","coordinates":[5.8216,46.2264]}},{"code":"01082","nom":"Chanay","codeDepartement":"01","centre":{"type":"Point","coordinates":[5.7674,46.0024]}},{"code":"01083","nom":"Chaneins","codeDepartement":"01","centre":{"type":"Point","coordinates":[4.8517,46.0947]}},{"code":"01084","nom":"Chanoz-Châtenay","codeDepartement":"01","centre":{"type":"Point","coordinates":[5.0302,46.1868]}},{"code":"01085","nom":"La Chapelle-du-Châtelard","codeDepartement":"01","centre":{"type":"Point","coordinates":[5.0174,46.0683]}},{"code":"01087","nom":"Charix","codeDepartement":"01","centre":{"type":"Point","coordinates":[5.6773,46.1893]}},{"code":"01088","nom":"Charnoz-sur-Ain","codeDepartement":"01","centre":{"type":"Point","coordinates":[5.2251,45.8756]}},{"code":"01089","nom":"Château-Gaillard","codeDepartement":"01","centre":{"type":"Point","coordinates":[5.3091,45.9723]}},{"code":"01090","nom":"Châtenay","codeDepartement":"01","centre":{"type":"Point","coordinates":[5.2085,46.0276]}},{"code":"01092","nom":"Châtillon-la-Palud","codeDepartement":"01","centre":{"type":"Point","coordinates":[5.246,45.9757]}},{"code":"01093","nom":"Châtillon-sur-Chalaronne","codeDepartement":"01","centre":{"type":"Point","coordinates":[4.9549,46.1264]}},{"code":"01094","nom":"Chavannes-sur-Reyssouze","codeDepartement":"01","centre":{"type":"Point","coordinates":[5.0069,46.4403]}},{"code":"01095","nom":"Nivigne et Suran","codeDepartement":"01","centre":{"type":"Point","coordinates":[5.4323,46.2824]}},{"code":"01096","nom":"Chaveyriat","codeDepartement":"01","centre":{"type":"Point","coordinates":[5.0534,46.1991]}},{"code":"01098","nom":"Chazey-Bons","codeDepartement":"01","centre":{"type":"Point","coordinates":[5.6678,45.8007]}},{"code":"01099","nom":"Chazey-sur-Ain","codeDepartement":"01","centre":{"type":"Point","coordinates":[5.2604,45.8937]}},{"code":"01100","nom":"Cheignieu-la-Balme","codeDepartement":"01","centre":{"type":"Point","coordinates":[5.6022,45.8233]}},{"code":"01101","nom":"Chevillard","codeDepartement":"01","centre":{"type":"Point","coordinates":[5.5815,46.1087]}},{"code":"01102","nom":"Chevroux","codeDepartement":"01","centre":{"type":"Point","coordinates":[4.9598,46.3822]}},{"code":"01103","nom":"Chevry","codeDepartement":"01","centre":{"type":"Point","coordinates":[6.0474,46.2841]}},{"code":"01104","nom":"Chézery-Forens","codeDepartement":"01","centre":{"type":"Point","coordinates":[5.8693,46.2244]}},{"code":"01105","nom":"Civrieux","codeDepartement":"01","centre":{"type":"Point","coordinates":[4.8895,45.9208]}},{"code":"01106","nom":"Cize","codeDepartement":"01","centre":{"type":"Point","coordinates":[5.45,46.2015]}},{"code":"01107","nom":"Cleyzieu","codeDepartement":"01","centre":{"type":"Point","coordinates":[5.4317,45.9027]}},{"code":"01108","nom":"Coligny","codeDepartement":"01","centre":{"type":"Point","coordinates":[5.3352,46.3889]}},{"code":"01109","nom":"Collonges","codeDepartement":"01","centre":{"type":"Point","coordinates":[5.9007,46.1397]}},{"code":"01110","nom":"Colomieu","codeDepartement":"01","centre":{"type":"Point","coordinates":[5.6269,45.7338]}},{"code":"01111","nom":"Conand","codeDepartement":"01","centre":{"type":"Point","coordinates":[5.4787,45.8836]}},{"code":"01112","nom":"Condamine","codeDepartement":"01","centre":{"type":"Point","coordinates":[5.5596,46.1056]}},{"code":"01113","nom":"Condeissiat","codeDepartement":"01","centre":{"type":"Point","coordinates":[5.0863,46.1541]}},{"code":"01114","nom":"Confort","codeDepartement":"01","centre":{"type":"Point","coordinates":[5.8358,46.1536]}},{"code":"01115","nom":"Confrançon","codeDepartement":"01","centre":{"type":"Point","coordinates":[5.06,46.2732]}},{"code":"01116","nom":"Contrevoz","codeDepartement":"01","centre":{"type":"Point","coordinates":[5.6164,45.7971]}},{"code":"01117","nom":"Conzieu","codeDepartement":"01","centre":{"type":"Point","coordinates":[5.602,45.7246]}},{"code":"01118","nom":"Corbonod","codeDepartement":"01","centre":{"type":"Point","coordinates":[5.7902,45.9668]}},{"code":"01121","nom":"Corlier","codeDepartement":"01","centre":{"type":"Point","coordinates":[5.5003,46.0369]}},{"code":"01123","nom":"Cormoranche-sur-Saône","codeDepartement":"01","centre":{"type":"Point","coordinates":[4.8305,46.2459]}},{"code":"01124","nom":"Cormoz","codeDepartement":"01","centre":{"type":"Point","coordinates":[5.2209,46.4375]}},{"code":"01125","nom":"Corveissiat","codeDepartement":"01","centre":{"type":"Point","coordinates":[5.4771,46.2514]}},{"code":"01127","nom":"Courmangoux","codeDepartement":"01","centre":{"type":"Point","coordinates":[5.3585,46.3243]}},{"code":"01128","nom":"Courtes","codeDepartement":"01","centre":{"type":"Point","coordinates":[5.1128,46.4564]}},{"code":"01129","nom":"Crans","codeDepartement":"01","centre":{"type":"Point","coordinates":[5.1917,45.9667]}},{"code":"01130","nom":"Bresse Vallons","codeDepartement":"01","centre":{"type":"Point","coordinates":[5.1822,46.3271]}},{"code":"01133","nom":"Cressin-Rochefort","codeDepartement":"01","centre":{"type":"Point","coordinates":[5.765,45.7833]}},{"code":"01134","nom":"Crottet","codeDepartement":"01","centre":{"type":"Point","coordinates":[4.876,46.2848]}},{"code":"01135","nom":"Crozet","codeDepartement":"01","centre":{"type":"Point","coordinates":[5.9929,46.2906]}},{"code":"01136","nom":"Cruzilles-lès-Mépillat","codeDepartement":"01","centre":{"type":"Point","coordinates":[4.876,46.2233]}},{"code":"01138","nom":"Culoz-Béon","codeDepartement":"01","centre":{"type":"Point","coordinates":[5.7716,45.8553]}},{"code":"01139","nom":"Curciat-Dongalon","codeDepartement":"01","centre":{"type":"Point","coordinates":[5.1666,46.4883]}},{"code":"01140","nom":"Curtafond","codeDepartement":"01","centre":{"type":"Point","coordinates":[5.1051,46.2742]}},{"code":"01141","nom":"Cuzieu","codeDepartement":"01","centre":{"type":"Point","coordinates":[5.6802,45.8216]}},{"code":"01142","nom":"Dagneux","codeDepartement":"01","centre":{"type":"Point","coordinates":[5.0748,45.854]}},{"code":"01143","nom":"Divonne-les-Bains","codeDepartement":"01","centre":{"type":"Point","coordinates":[6.1114,46.3754]}},{"code":"01145","nom":"Dompierre-sur-Veyle","codeDepartement":"01","centre":{"type":"Point","coordinates":[5.2167,46.0672]}},{"code":"01146","nom":"Dompierre-sur-Chalaronne","codeDepartement":"01","centre":{"type":"Point","coordinates":[4.9004,46.142]}},{"code":"01147","nom":"Domsure","codeDepartement":"01","centre":{"type":"Point","coordinates":[5.2945,46.4211]}},{"code":"01148","nom":"Dortan","codeDepartement":"01","centre":{"type":"Point","coordinates":[5.6443,46.3184]}},{"code":"01149","nom":"Douvres","codeDepartement":"01","centre":{"type":"Point","coordinates":[5.3724,45.9847]}},{"code":"01150","nom":"Drom","codeDepartement":"01","centre":{"type":"Point","coordinates":[5.3674,46.2202]}},{"code":"01151","nom":"Druillat","codeDepartement":"01","centre":{"type":"Point","coordinates":[5.2947,46.0691]}},{"code":"01152","nom":"Échallon","codeDepartement":"01","centre":{"type":"Point","coordinates":[5.7346,46.2293]}},{"code":"01153","nom":"Échenevex","codeDepartement":"01","centre":{"type":"Point","coordinates":[6.018,46.3197]}},{"code":"01155","nom":"Évosges","codeDepartement":"01","centre":{"type":"Point","coordinates":[5.5008,45.963]}},{"code":"01156","nom":"Faramans","codeDepartement":"01","centre":{"type":"Point","coordinates":[5.126,45.9086]}},{"code":"01157","nom":"Fareins","codeDepartement":"01","centre":{"type":"Point","coordinates":[4.7682,46.0235]}},{"code":"01158","nom":"Farges","codeDepartement":"01","centre":{"type":"Point","coordinates":[5.9054,46.1657]}},{"code":"01159","nom":"Feillens","codeDepartement":"01","centre":{"type":"Point","coordinates":[4.8866,46.3393]}},{"code":"01160","nom":"Ferney-Voltaire","codeDepartement":"01","centre":{"type":"Point","coordinates":[6.1061,46.252]}},{"code":"01162","nom":"Flaxieu","codeDepartement":"01","centre":{"type":"Point","coordinates":[5.7466,45.8125]}},{"code":"01163","nom":"Foissiat","codeDepartement":"01","centre":{"type":"Point","coordinates":[5.1851,46.3792]}},{"code":"01165","nom":"Francheleins","codeDepartement":"01","centre":{"type":"Point","coordinates":[4.8111,46.0707]}},{"code":"01166","nom":"Frans","codeDepartement":"01","centre":{"type":"Point","coordinates":[4.7819,45.9905]}},{"code":"01167","nom":"Garnerans","codeDepartement":"01","centre":{"type":"Point","coordinates":[4.8289,46.2124]}},{"code":"01169","nom":"Genouilleux","codeDepartement":"01","centre":{"type":"Point","coordinates":[4.7926,46.1211]}},{"code":"01170","nom":"Béard-Géovreissiat","codeDepartement":"01","centre":{"type":"Point","coordinates":[5.5497,46.1884]}},{"code":"01171","nom":"Géovreisset","codeDepartement":"01","centre":{"type":"Point","coordinates":[5.6163,46.2518]}},{"code":"01173","nom":"Gex","codeDepartement":"01","centre":{"type":"Point","coordinates":[6.0488,46.3515]}},{"code":"01174","nom":"Giron","codeDepartement":"01","centre":{"type":"Point","coordinates":[5.7891,46.2209]}},{"code":"01175","nom":"Gorrevod","codeDepartement":"01","centre":{"type":"Point","coordinates":[4.9507,46.4157]}},{"code":"01177","nom":"Grand-Corent","codeDepartement":"01","centre":{"type":"Point","coordinates":[5.4388,46.2089]}},{"code":"01179","nom":"Grièges","codeDepartement":"01","centre":{"type":"Point","coordinates":[4.8475,46.2669]}},{"code":"01180","nom":"Grilly","codeDepartement":"01","centre":{"type":"Point","coordinates":[6.1139,46.3318]}},{"code":"01181","nom":"Groissiat","codeDepartement":"01","centre":{"type":"Point","coordinates":[5.6179,46.227]}},{"code":"01183","nom":"Guéreins","codeDepartement":"01","centre":{"type":"Point","coordinates":[4.7839,46.106]}},{"code":"01184","nom":"Hautecourt-Romanèche","codeDepartement":"01","centre":{"type":"Point","coordinates":[5.4311,46.1592]}},{"code":"01185","nom":"Plateau d'Hauteville","codeDepartement":"01","centre":{"type":"Point","coordinates":[5.5775,45.9305]}},{"code":"01187","nom":"Haut Valromey","codeDepartement":"01","centre":{"type":"Point","coordinates":[5.6846,46.0436]}},{"code":"01188","nom":"Illiat","codeDepartement":"01","centre":{"type":"Point","coordinates":[4.8884,46.1838]}},{"code":"01189","nom":"Injoux-Génissiat","codeDepartement":"01","centre":{"type":"Point","coordinates":[5.7678,46.0505]}},{"code":"01190","nom":"Innimond","codeDepartement":"01","centre":{"type":"Point","coordinates":[5.5723,45.7875]}},{"code":"01191","nom":"Izenave","codeDepartement":"01","centre":{"type":"Point","coordinates":[5.5234,46.038]}},{"code":"01192","nom":"Izernore","codeDepartement":"01","centre":{"type":"Point","coordinates":[5.5609,46.216]}},{"code":"01193","nom":"Izieu","codeDepartement":"01","centre":{"type":"Point","coordinates":[5.6387,45.6555]}},{"code":"01194","nom":"Jassans-Riottier","codeDepartement":"01","centre":{"type":"Point","coordinates":[4.7626,45.9771]}},{"code":"01195","nom":"Jasseron","codeDepartement":"01","centre":{"type":"Point","coordinates":[5.317,46.2176]}},{"code":"01196","nom":"Jayat","codeDepartement":"01","centre":{"type":"Point","coordinates":[5.1117,46.3698]}},{"code":"01197","nom":"Journans","codeDepartement":"01","centre":{"type":"Point","coordinates":[5.3333,46.1455]}},{"code":"01198","nom":"Joyeux","codeDepartement":"01","centre":{"type":"Point","coordinates":[5.0998,45.946]}},{"code":"01199","nom":"Jujurieux","codeDepartement":"01","centre":{"type":"Point","coordinates":[5.4122,46.0503]}},{"code":"01200","nom":"Labalme","codeDepartement":"01","centre":{"type":"Point","coordinates":[5.4945,46.0915]}},{"code":"01202","nom":"Lagnieu","codeDepartement":"01","centre":{"type":"Point","coordinates":[5.3396,45.8863]}},{"code":"01203","nom":"Laiz","codeDepartement":"01","centre":{"type":"Point","coordinates":[4.9006,46.2462]}},{"code":"01204","nom":"Le Poizat-Lalleyriat","codeDepartement":"01","centre":{"type":"Point","coordinates":[5.6955,46.1392]}},{"code":"01206","nom":"Lantenay","codeDepartement":"01","centre":{"type":"Point","coordinates":[5.5379,46.0531]}},{"code":"01207","nom":"Lapeyrouse","codeDepartement":"01","centre":{"type":"Point","coordinates":[4.9821,45.9849]}},{"code":"01208","nom":"Lavours","codeDepartement":"01","centre":{"type":"Point","coordinates":[5.7707,45.8108]}},{"code":"01209","nom":"Léaz","codeDepartement":"01","centre":{"type":"Point","coordinates":[5.8768,46.1114]}},{"code":"01210","nom":"Lélex","codeDepartement":"01","centre":{"type":"Point","coordinates":[5.9274,46.2856]}},{"code":"01211","nom":"Lent","codeDepartement":"01","centre":{"type":"Point","coordinates":[5.1974,46.1165]}},{"code":"01212","nom":"Lescheroux","codeDepartement":"01","centre":{"type":"Point","coordinates":[5.1573,46.4089]}},{"code":"01213","nom":"Leyment","codeDepartement":"01","centre":{"type":"Point","coordinates":[5.2927,45.9287]}},{"code":"01214","nom":"Leyssard","codeDepartement":"01","centre":{"type":"Point","coordinates":[5.4767,46.1605]}},{"code":"01215","nom":"Surjoux-Lhopital","codeDepartement":"01","centre":{"type":"Point","coordinates":[5.7666,46.0302]}},{"code":"01216","nom":"Lhuis","codeDepartement":"01","centre":{"type":"Point","coordinates":[5.5398,45.7469]}},{"code":"01219","nom":"Lompnas","codeDepartement":"01","centre":{"type":"Point","coordinates":[5.5263,45.8118]}},{"code":"01224","nom":"Loyettes","codeDepartement":"01","centre":{"type":"Point","coordinates":[5.2163,45.7953]}},{"code":"01225","nom":"Lurcy","codeDepartement":"01","centre":{"type":"Point","coordinates":[4.7802,46.0628]}},{"code":"01227","nom":"Magnieu","codeDepartement":"01","centre":{"type":"Point","coordinates":[5.7197,45.7763]}},{"code":"01228","nom":"Maillat","codeDepartement":"01","centre":{"type":"Point","coordinates":[5.535,46.1204]}},{"code":"01229","nom":"Malafretaz","codeDepartement":"01","centre":{"type":"Point","coordinates":[5.1462,46.3299]}},{"code":"01230","nom":"Mantenay-Montlin","codeDepartement":"01","centre":{"type":"Point","coordinates":[5.1064,46.4318]}},{"code":"01231","nom":"Manziat","codeDepartement":"01","centre":{"type":"Point","coordinates":[4.9026,46.3651]}},{"code":"01232","nom":"Marboz","codeDepartement":"01","centre":{"type":"Point","coordinates":[5.2461,46.3452]}},{"code":"01233","nom":"Marchamp","codeDepartement":"01","centre":{"type":"Point","coordinates":[5.5509,45.7762]}},{"code":"01234","nom":"Marignieu","codeDepartement":"01","centre":{"type":"Point","coordinates":[5.718,45.8023]}},{"code":"01235","nom":"Marlieux","codeDepartement":"01","centre":{"type":"Point","coordinates":[5.0756,46.0542]}},{"code":"01236","nom":"Marsonnas","codeDepartement":"01","centre":{"type":"Point","coordinates":[5.0608,46.3401]}},{"code":"01237","nom":"Martignat","codeDepartement":"01","centre":{"type":"Point","coordinates":[5.6099,46.203]}},{"code":"01238","nom":"Massieux","codeDepartement":"01","centre":{"type":"Point","coordinates":[4.8279,45.9101]}},{"code":"01239","nom":"Massignieu-de-Rives","codeDepartement":"01","centre":{"type":"Point","coordinates":[5.7566,45.7564]}},{"code":"01240","nom":"Matafelon-Granges","codeDepartement":"01","centre":{"type":"Point","coordinates":[5.5272,46.2505]}},{"code":"01241","nom":"Meillonnas","codeDepartement":"01","centre":{"type":"Point","coordinates":[5.3347,46.2451]}},{"code":"01242","nom":"Mérignat","codeDepartement":"01","centre":{"type":"Point","coordinates":[5.4425,46.065]}},{"code":"01243","nom":"Messimy-sur-Saône","codeDepartement":"01","centre":{"type":"Point","coordinates":[4.7609,46.048]}},{"code":"01244","nom":"Meximieux","codeDepartement":"01","centre":{"type":"Point","coordinates":[5.2116,45.9047]}},{"code":"01245","nom":"Bohas-Meyriat-Rignat","codeDepartement":"01","centre":{"type":"Point","coordinates":[5.375,46.1422]}},{"code":"01246","nom":"Mézériat","codeDepartement":"01","centre":{"type":"Point","coordinates":[5.0481,46.2424]}},{"code":"01247","nom":"Mijoux","codeDepartement":"01","centre":{"type":"Point","coordinates":[6.0106,46.3593]}},{"code":"01248","nom":"Mionnay","codeDepartement":"01","centre":{"type":"Point","coordinates":[4.9274,45.8959]}},{"code":"01249","nom":"Miribel","codeDepartement":"01","centre":{"type":"Point","coordinates":[4.941,45.8444]}},{"code":"01250","nom":"Misérieux","codeDepartement":"01","centre":{"type":"Point","coordinates":[4.8138,45.9745]}},{"code":"01252","nom":"Mogneneins","codeDepartement":"01","centre":{"type":"Point","coordinates":[4.8203,46.1454]}},{"code":"01254","nom":"Montagnat","codeDepartement":"01","centre":{"type":"Point","coordinates":[5.2776,46.172]}},{"code":"01255","nom":"Montagnieu","codeDepartement":"01","centre":{"type":"Point","coordinates":[5.4598,45.802]}},{"code":"01257","nom":"Montanges","codeDepartement":"01","centre":{"type":"Point","coordinates":[5.7903,46.171]}},{"code":"01258","nom":"Montceaux","codeDepartement":"01","centre":{"type":"Point","coordinates":[4.8041,46.0978]}},{"code":"01259","nom":"Montcet","codeDepartement":"01","centre":{"type":"Point","coordinates":[5.1123,46.2199]}},{"code":"01260","nom":"Le Montellier","codeDepartement":"01","centre":{"type":"Point","coordinates":[5.0699,45.9284]}},{"code":"01261","nom":"Monthieux","codeDepartement":"01","centre":{"type":"Point","coordinates":[4.948,45.9631]}},{"code":"01262","nom":"Montluel","codeDepartement":"01","centre":{"type":"Point","coordinates":[5.0185,45.8868]}},{"code":"01263","nom":"Montmerle-sur-Saône","codeDepartement":"01","centre":{"type":"Point","coordinates":[4.759,46.0843]}},{"code":"01264","nom":"Montracol","codeDepartement":"01","centre":{"type":"Point","coordinates":[5.1234,46.182]}},{"code":"01265","nom":"Montréal-la-Cluse","codeDepartement":"01","centre":{"type":"Point","coordinates":[5.5976,46.181]}},{"code":"01266","nom":"Montrevel-en-Bresse","codeDepartement":"01","centre":{"type":"Point","coordinates":[5.1122,46.3262]}},{"code":"01267","nom":"Nurieux-Volognat","codeDepartement":"01","centre":{"type":"Point","coordinates":[5.5155,46.1855]}},{"code":"01268","nom":"Murs-et-Gélignieux","codeDepartement":"01","centre":{"type":"Point","coordinates":[5.6585,45.6404]}},{"code":"01269","nom":"Nantua","codeDepartement":"01","centre":{"type":"Point","coordinates":[5.6079,46.1486]}},{"code":"01272","nom":"Neuville-les-Dames","codeDepartement":"01","centre":{"type":"Point","coordinates":[5.0103,46.1599]}},{"code":"01273","nom":"Neuville-sur-Ain","codeDepartement":"01","centre":{"type":"Point","coordinates":[5.3702,46.0909]}},{"code":"01274","nom":"Les Neyrolles","codeDepartement":"01","centre":{"type":"Point","coordinates":[5.6354,46.1367]}},{"code":"01275","nom":"Neyron","codeDepartement":"01","centre":{"type":"Point","coordinates":[4.9356,45.8204]}},{"code":"01276","nom":"Niévroz","codeDepartement":"01","centre":{"type":"Point","coordinates":[5.0615,45.8241]}},{"code":"01277","nom":"Nivollet-Montgriffon","codeDepartement":"01","centre":{"type":"Point","coordinates":[5.4567,46.0002]}},{"code":"01279","nom":"Oncieu","codeDepartement":"01","centre":{"type":"Point","coordinates":[5.4716,45.9685]}},{"code":"01280","nom":"Ordonnaz","codeDepartement":"01","centre":{"type":"Point","coordinates":[5.5439,45.8357]}},{"code":"01281","nom":"Ornex","codeDepartement":"01","centre":{"type":"Point","coordinates":[6.0953,46.2779]}},{"code":"01282","nom":"Outriaz","codeDepartement":"01","centre":{"type":"Point","coordinates":[5.5543,46.0631]}},{"code":"01283","nom":"Oyonnax","codeDepartement":"01","centre":{"type":"Point","coordinates":[5.6517,46.2599]}},{"code":"01284","nom":"Ozan","codeDepartement":"01","centre":{"type":"Point","coordinates":[4.9191,46.3863]}},{"code":"01285","nom":"Parcieux","codeDepartement":"01","centre":{"type":"Point","coordinates":[4.8299,45.9197]}},{"code":"01286","nom":"Parves et Nattages","codeDepartement":"01","centre":{"type":"Point","coordinates":[5.7495,45.7318]}},{"code":"01288","nom":"Péron","codeDepartement":"01","centre":{"type":"Point","coordinates":[5.9141,46.1933]}},{"code":"01289","nom":"Péronnas","codeDepartement":"01","centre":{"type":"Point","coordinates":[5.2195,46.1693]}},{"code":"01290","nom":"Pérouges","codeDepartement":"01","centre":{"type":"Point","coordinates":[5.1791,45.8789]}},{"code":"01291","nom":"Perrex","codeDepartement":"01","centre":{"type":"Point","coordinates":[4.9718,46.2462]}},{"code":"01293","nom":"Peyriat","codeDepartement":"01","centre":{"type":"Point","coordinates":[5.506,46.1486]}},{"code":"01294","nom":"Peyrieu","codeDepartement":"01","centre":{"type":"Point","coordinates":[5.6829,45.674]}},{"code":"01295","nom":"Peyzieux-sur-Saône","codeDepartement":"01","centre":{"type":"Point","coordinates":[4.8192,46.1227]}},{"code":"01296","nom":"Pirajoux","codeDepartement":"01","centre":{"type":"Point","coordinates":[5.2703,46.386]}},{"code":"01297","nom":"Pizay","codeDepartement":"01","centre":{"type":"Point","coordinates":[5.0901,45.8906]}},{"code":"01298","nom":"Plagne","codeDepartement":"01","centre":{"type":"Point","coordinates":[5.7179,46.1889]}},{"code":"01299","nom":"Le Plantay","codeDepartement":"01","centre":{"type":"Point","coordinates":[5.0891,46.0236]}},{"code":"01301","nom":"Polliat","codeDepartement":"01","centre":{"type":"Point","coordinates":[5.1355,46.2504]}},{"code":"01302","nom":"Pollieu","codeDepartement":"01","centre":{"type":"Point","coordinates":[5.7463,45.7953]}},{"code":"01303","nom":"Poncin","codeDepartement":"01","centre":{"type":"Point","coordinates":[5.4129,46.0918]}},{"code":"01304","nom":"Pont-d'Ain","codeDepartement":"01","centre":{"type":"Point","coordinates":[5.3491,46.0556]}},{"code":"01305","nom":"Pont-de-Vaux","codeDepartement":"01","centre":{"type":"Point","coordinates":[4.9265,46.4415]}},{"code":"01306","nom":"Pont-de-Veyle","codeDepartement":"01","centre":{"type":"Point","coordinates":[4.8818,46.2647]}},{"code":"01307","nom":"Port","codeDepartement":"01","centre":{"type":"Point","coordinates":[5.581,46.1535]}},{"code":"01308","nom":"Pougny","codeDepartement":"01","centre":{"type":"Point","coordinates":[5.9492,46.1457]}},{"code":"01309","nom":"Pouillat","codeDepartement":"01","centre":{"type":"Point","coordinates":[5.4243,46.3263]}},{"code":"01310","nom":"Prémeyzel","codeDepartement":"01","centre":{"type":"Point","coordinates":[5.6423,45.6827]}},{"code":"01311","nom":"Prémillieu","codeDepartement":"01","centre":{"type":"Point","coordinates":[5.5657,45.8785]}},{"code":"01313","nom":"Prévessin-Moëns","codeDepartement":"01","centre":{"type":"Point","coordinates":[6.0722,46.2594]}},{"code":"01314","nom":"Priay","codeDepartement":"01","centre":{"type":"Point","coordinates":[5.2829,46.019]}},{"code":"01317","nom":"Ramasse","codeDepartement":"01","centre":{"type":"Point","coordinates":[5.3569,46.1893]}},{"code":"01318","nom":"Rancé","codeDepartement":"01","centre":{"type":"Point","coordinates":[4.8665,45.9674]}},{"code":"01319","nom":"Relevant","codeDepartement":"01","centre":{"type":"Point","coordinates":[4.9399,46.0808]}},{"code":"01320","nom":"Replonges","codeDepartement":"01","centre":{"type":"Point","coordinates":[4.8784,46.307]}},{"code":"01321","nom":"Revonnas","codeDepartement":"01","centre":{"type":"Point","coordinates":[5.3351,46.1637]}},{"code":"01322","nom":"Reyrieux","codeDepartement":"01","centre":{"type":"Point","coordinates":[4.8314,45.9368]}},{"code":"01323","nom":"Reyssouze","codeDepartement":"01","centre":{"type":"Point","coordinates":[4.9145,46.4284]}},{"code":"01325","nom":"Rignieux-le-Franc","codeDepartement":"01","centre":{"type":"Point","coordinates":[5.1675,45.9513]}},{"code":"01328","nom":"Romans","codeDepartement":"01","centre":{"type":"Point","coordinates":[5.0217,46.1216]}},{"code":"01329","nom":"Rossillon","codeDepartement":"01","centre":{"type":"Point","coordinates":[5.5987,45.8359]}},{"code":"01331","nom":"Saint-Alban","codeDepartement":"01","centre":{"type":"Point","coordinates":[5.4568,46.0968]}},{"code":"01332","nom":"Saint-André-de-Bâgé","codeDepartement":"01","centre":{"type":"Point","coordinates":[4.9132,46.2975]}},{"code":"01333","nom":"Saint-André-de-Corcy","codeDepartement":"01","centre":{"type":"Point","coordinates":[4.9529,45.9287]}},{"code":"01334","nom":"Saint-André-d'Huiriat","codeDepartement":"01","centre":{"type":"Point","coordinates":[4.9144,46.2163]}},{"code":"01335","nom":"Saint-André-le-Bouchoux","codeDepartement":"01","centre":{"type":"Point","coordinates":[5.0775,46.1137]}},{"code":"01336","nom":"Saint-André-sur-Vieux-Jonc","codeDepartement":"01","centre":{"type":"Point","coordinates":[5.143,46.15]}},{"code":"01337","nom":"Saint-Bénigne","codeDepartement":"01","centre":{"type":"Point","coordinates":[4.952,46.4517]}},{"code":"01338","nom":"Groslée-Saint-Benoit","codeDepartement":"01","centre":{"type":"Point","coordinates":[5.5823,45.7011]}},{"code":"01339","nom":"Saint-Bernard","codeDepartement":"01","centre":{"type":"Point","coordinates":[4.7419,45.95]}},{"code":"01342","nom":"Sainte-Croix","codeDepartement":"01","centre":{"type":"Point","coordinates":[5.0477,45.8978]}},{"code":"01343","nom":"Saint-Cyr-sur-Menthon","codeDepartement":"01","centre":{"type":"Point","coordinates":[4.9669,46.2751]}},{"code":"01344","nom":"Saint-Denis-lès-Bourg","codeDepartement":"01","centre":{"type":"Point","coordinates":[5.1825,46.2097]}},{"code":"01345","nom":"Saint-Denis-en-Bugey","codeDepartement":"01","centre":{"type":"Point","coordinates":[5.326,45.9497]}},{"code":"01346","nom":"Saint-Didier-d'Aussiat","codeDepartement":"01","centre":{"type":"Point","coordinates":[5.0536,46.3075]}},{"code":"01347","nom":"Saint-Didier-de-Formans","codeDepartement":"01","centre":{"type":"Point","coordinates":[4.7767,45.9587]}},{"code":"01348","nom":"Saint-Didier-sur-Chalaronne","codeDepartement":"01","centre":{"type":"Point","coordinates":[4.823,46.1877]}},{"code":"01349","nom":"Saint-Éloi","codeDepartement":"01","centre":{"type":"Point","coordinates":[5.1507,45.9343]}},{"code":"01350","nom":"Saint-Étienne-du-Bois","codeDepartement":"01","centre":{"type":"Point","coordinates":[5.2793,46.2755]}},{"code":"01351","nom":"Saint-Étienne-sur-Chalaronne","codeDepartement":"01","centre":{"type":"Point","coordinates":[4.8694,46.1451]}},{"code":"01352","nom":"Saint-Étienne-sur-Reyssouze","codeDepartement":"01","centre":{"type":"Point","coordinates":[5.0031,46.3998]}},{"code":"01353","nom":"Sainte-Euphémie","codeDepartement":"01","centre":{"type":"Point","coordinates":[4.7927,45.9651]}},{"code":"01354","nom":"Saint-Genis-Pouilly","codeDepartement":"01","centre":{"type":"Point","coordinates":[6.0368,46.2556]}},{"code":"01355","nom":"Saint-Genis-sur-Menthon","codeDepartement":"01","centre":{"type":"Point","coordinates":[5.0162,46.281]}},{"code":"01356","nom":"Saint-Georges-sur-Renon","codeDepartement":"01","centre":{"type":"Point","coordinates":[5.0286,46.1033]}},{"code":"01357","nom":"Saint-Germain-de-Joux","codeDepartement":"01","centre":{"type":"Point","coordinates":[5.7435,46.1812]}},{"code":"01358","nom":"Saint-Germain-les-Paroisses","codeDepartement":"01","centre":{"type":"Point","coordinates":[5.6191,45.773]}},{"code":"01359","nom":"Saint-Germain-sur-Renon","codeDepartement":"01","centre":{"type":"Point","coordinates":[5.0626,46.0764]}},{"code":"01360","nom":"Saint-Jean-de-Gonville","codeDepartement":"01","centre":{"type":"Point","coordinates":[5.9395,46.2184]}},{"code":"01361","nom":"Saint-Jean-de-Niost","codeDepartement":"01","centre":{"type":"Point","coordinates":[5.2066,45.8384]}},{"code":"01362","nom":"Saint-Jean-de-Thurigneux","codeDepartement":"01","centre":{"type":"Point","coordinates":[4.8959,45.9597]}},{"code":"01363","nom":"Saint-Jean-le-Vieux","codeDepartement":"01","centre":{"type":"Point","coordinates":[5.3799,46.028]}},{"code":"01364","nom":"Saint-Jean-sur-Reyssouze","codeDepartement":"01","centre":{"type":"Point","coordinates":[5.0582,46.3912]}},{"code":"01365","nom":"Saint-Jean-sur-Veyle","codeDepartement":"01","centre":{"type":"Point","coordinates":[4.9203,46.2687]}},{"code":"01366","nom":"Sainte-Julie","codeDepartement":"01","centre":{"type":"Point","coordinates":[5.2837,45.8802]}},{"code":"01367","nom":"Saint-Julien-sur-Reyssouze","codeDepartement":"01","centre":{"type":"Point","coordinates":[5.1062,46.3977]}},{"code":"01368","nom":"Saint-Julien-sur-Veyle","codeDepartement":"01","centre":{"type":"Point","coordinates":[4.9559,46.2072]}},{"code":"01369","nom":"Saint-Just","codeDepartement":"01","centre":{"type":"Point","coordinates":[5.285,46.1948]}},{"code":"01370","nom":"Saint-Laurent-sur-Saône","codeDepartement":"01","centre":{"type":"Point","coordinates":[4.8395,46.3053]}},{"code":"01371","nom":"Saint-Marcel","codeDepartement":"01","centre":{"type":"Point","coordinates":[4.9862,45.9485]}},{"code":"01372","nom":"Saint-Martin-de-Bavel","codeDepartement":"01","centre":{"type":"Point","coordinates":[5.6779,45.8467]}},{"code":"01373","nom":"Saint-Martin-du-Frêne","codeDepartement":"01","centre":{"type":"Point","coordinates":[5.5711,46.1345]}},{"code":"01374","nom":"Saint-Martin-du-Mont","codeDepartement":"01","centre":{"type":"Point","coordinates":[5.33,46.1063]}},{"code":"01375","nom":"Saint-Martin-le-Châtel","codeDepartement":"01","centre":{"type":"Point","coordinates":[5.1206,46.2903]}},{"code":"01376","nom":"Saint-Maurice-de-Beynost","codeDepartement":"01","centre":{"type":"Point","coordinates":[4.9763,45.8325]}},{"code":"01378","nom":"Saint-Maurice-de-Gourdans","codeDepartement":"01","centre":{"type":"Point","coordinates":[5.172,45.819]}},{"code":"01379","nom":"Saint-Maurice-de-Rémens","codeDepartement":"01","centre":{"type":"Point","coordinates":[5.2706,45.9542]}},{"code":"01380","nom":"Saint-Nizier-le-Bouchoux","codeDepartement":"01","centre":{"type":"Point","coordinates":[5.1716,46.4549]}},{"code":"01381","nom":"Saint-Nizier-le-Désert","codeDepartement":"01","centre":{"type":"Point","coordinates":[5.1471,46.0518]}},{"code":"01382","nom":"Sainte-Olive","codeDepartement":"01","centre":{"type":"Point","coordinates":[4.9349,46.0147]}},{"code":"01383","nom":"Saint-Paul-de-Varax","codeDepartement":"01","centre":{"type":"Point","coordinates":[5.1309,46.0949]}},{"code":"01384","nom":"Saint-Rambert-en-Bugey","codeDepartement":"01","centre":{"type":"Point","coordinates":[5.4418,45.953]}},{"code":"01385","nom":"Saint-Rémy","codeDepartement":"01","centre":{"type":"Point","coordinates":[5.1646,46.1857]}},{"code":"01386","nom":"Saint-Sorlin-en-Bugey","codeDepartement":"01","centre":{"type":"Point","coordinates":[5.369,45.8863]}},{"code":"01387","nom":"Saint-Sulpice","codeDepartement":"01","centre":{"type":"Point","coordinates":[5.0406,46.3215]}},{"code":"01388","nom":"Saint-Trivier-de-Courtes","codeDepartement":"01","centre":{"type":"Point","coordinates":[5.0672,46.458]}},{"code":"01389","nom":"Saint-Trivier-sur-Moignans","codeDepartement":"01","centre":{"type":"Point","coordinates":[4.8984,46.0632]}},{"code":"01390","nom":"Saint-Vulbas","codeDepartement":"01","centre":{"type":"Point","coordinates":[5.267,45.8234]}},{"code":"01391","nom":"Salavre","codeDepartement":"01","centre":{"type":"Point","coordinates":[5.3457,46.363]}},{"code":"01392","nom":"Samognat","codeDepartement":"01","centre":{"type":"Point","coordinates":[5.5826,46.2732]}},{"code":"01393","nom":"Sandrans","codeDepartement":"01","centre":{"type":"Point","coordinates":[4.9824,46.0709]}},{"code":"01396","nom":"Sault-Brénaz","codeDepartement":"01","centre":{"type":"Point","coordinates":[5.4007,45.8612]}},{"code":"01397","nom":"Sauverny","codeDepartement":"01","centre":{"type":"Point","coordinates":[6.1102,46.3132]}},{"code":"01398","nom":"Savigneux","codeDepartement":"01","centre":{"type":"Point","coordinates":[4.8559,45.9946]}},{"code":"01399","nom":"Ségny","codeDepartement":"01","centre":{"type":"Point","coordinates":[6.0732,46.2944]}},{"code":"01400","nom":"Seillonnaz","codeDepartement":"01","centre":{"type":"Point","coordinates":[5.504,45.8006]}},{"code":"01401","nom":"Sergy","codeDepartement":"01","centre":{"type":"Point","coordinates":[5.9872,46.2615]}},{"code":"01402","nom":"Sermoyer","codeDepartement":"01","centre":{"type":"Point","coordinates":[4.9733,46.4987]}},{"code":"01403","nom":"Serrières-de-Briord","codeDepartement":"01","centre":{"type":"Point","coordinates":[5.4424,45.8129]}},{"code":"01404","nom":"Serrières-sur-Ain","codeDepartement":"01","centre":{"type":"Point","coordinates":[5.4472,46.149]}},{"code":"01405","nom":"Servas","codeDepartement":"01","centre":{"type":"Point","coordinates":[5.1845,46.1366]}},{"code":"01406","nom":"Servignat","codeDepartement":"01","centre":{"type":"Point","coordinates":[5.0587,46.4354]}},{"code":"01407","nom":"Seyssel","codeDepartement":"01","centre":{"type":"Point","coordinates":[5.8257,45.9477]}},{"code":"01408","nom":"Simandre-sur-Suran","codeDepartement":"01","centre":{"type":"Point","coordinates":[5.4214,46.235]}},{"code":"01410","nom":"Sonthonnax-la-Montagne","codeDepartement":"01","centre":{"type":"Point","coordinates":[5.5015,46.2235]}},{"code":"01411","nom":"Souclin","codeDepartement":"01","centre":{"type":"Point","coordinates":[5.4368,45.8811]}},{"code":"01412","nom":"Sulignat","codeDepartement":"01","centre":{"type":"Point","coordinates":[4.9601,46.1727]}},{"code":"01415","nom":"Talissieu","codeDepartement":"01","centre":{"type":"Point","coordinates":[5.7199,45.8627]}},{"code":"01416","nom":"Tenay","codeDepartement":"01","centre":{"type":"Point","coordinates":[5.5147,45.9222]}},{"code":"01418","nom":"Thil","codeDepartement":"01","centre":{"type":"Point","coordinates":[5.0189,45.8184]}},{"code":"01419","nom":"Thoiry","codeDepartement":"01","centre":{"type":"Point","coordinates":[5.9685,46.2448]}},{"code":"01420","nom":"Thoissey","codeDepartement":"01","centre":{"type":"Point","coordinates":[4.7963,46.1697]}},{"code":"01421","nom":"Torcieu","codeDepartement":"01","centre":{"type":"Point","coordinates":[5.4056,45.9189]}},{"code":"01422","nom":"Tossiat","codeDepartement":"01","centre":{"type":"Point","coordinates":[5.3076,46.1355]}},{"code":"01423","nom":"Toussieux","codeDepartement":"01","centre":{"type":"Point","coordinates":[4.8289,45.961]}},{"code":"01424","nom":"Tramoyes","codeDepartement":"01","centre":{"type":"Point","coordinates":[4.9624,45.8742]}},{"code":"01425","nom":"La Tranclière","codeDepartement":"01","centre":{"type":"Point","coordinates":[5.2656,46.0915]}},{"code":"01426","nom":"Val-Revermont","codeDepartement":"01","centre":{"type":"Point","coordinates":[5.3537,46.2816]}},{"code":"01427","nom":"Trévoux","codeDepartement":"01","centre":{"type":"Point","coordinates":[4.771,45.9398]}},{"code":"01428","nom":"Valeins","codeDepartement":"01","centre":{"type":"Point","coordinates":[4.8646,46.1145]}},{"code":"01429","nom":"Vandeins","codeDepartement":"01","centre":{"type":"Point","coordinates":[5.0786,46.2155]}},{"code":"01430","nom":"Varambon","codeDepartement":"01","centre":{"type":"Point","coordinates":[5.2909,46.0443]}},{"code":"01431","nom":"Vaux-en-Bugey","codeDepartement":"01","centre":{"type":"Point","coordinates":[5.3612,45.9184]}},{"code":"01432","nom":"Verjon","codeDepartement":"01","centre":{"type":"Point","coordinates":[5.3472,46.3466]}},{"code":"01433","nom":"Vernoux","codeDepartement":"01","centre":{"type":"Point","coordinates":[5.1036,46.4861]}},{"code":"01434","nom":"Versailleux","codeDepartement":"01","centre":{"type":"Point","coordinates":[5.115,45.9883]}},{"code":"01435","nom":"Versonnex","codeDepartement":"01","centre":{"type":"Point","coordinates":[6.1008,46.2992]}},{"code":"01436","nom":"Vesancy","codeDepartement":"01","centre":{"type":"Point","coordinates":[6.0856,46.3634]}},{"code":"01437","nom":"Vescours","codeDepartement":"01","centre":{"type":"Point","coordinates":[5.0286,46.4743]}},{"code":"01439","nom":"Vésines","codeDepartement":"01","centre":{"type":"Point","coordinates":[4.8638,46.3593]}},{"code":"01441","nom":"Vieu-d'Izenave","codeDepartement":"01","centre":{"type":"Point","coordinates":[5.5555,46.0823]}},{"code":"01443","nom":"Villars-les-Dombes","codeDepartement":"01","centre":{"type":"Point","coordinates":[5.0443,46]}},{"code":"01444","nom":"Villebois","codeDepartement":"01","centre":{"type":"Point","coordinates":[5.4483,45.8499]}},{"code":"01445","nom":"Villemotier","codeDepartement":"01","centre":{"type":"Point","coordinates":[5.3087,46.3418]}},{"code":"01446","nom":"Villeneuve","codeDepartement":"01","centre":{"type":"Point","coordinates":[4.8598,46.0346]}},{"code":"01447","nom":"Villereversure","codeDepartement":"01","centre":{"type":"Point","coordinates":[5.3936,46.1939]}},{"code":"01448","nom":"Villes","codeDepartement":"01","centre":{"type":"Point","coordinates":[5.7598,46.0952]}},{"code":"01449","nom":"Villette-sur-Ain","codeDepartement":"01","centre":{"type":"Point","coordinates":[5.254,46.0125]}},{"code":"01450","nom":"Villieu-Loyes-Mollon","codeDepartement":"01","centre":{"type":"Point","coordinates":[5.2265,45.929]}},{"code":"01451","nom":"Viriat","codeDepartement":"01","centre":{"type":"Point","coordinates":[5.2257,46.2522]}},{"code":"01452","nom":"Virieu-le-Grand","codeDepartement":"01","centre":{"type":"Point","coordinates":[5.639,45.8465]}},{"code":"01453","nom":"Arvière-en-Valromey","codeDepartement":"01","centre":{"type":"Point","coordinates":[5.7346,45.9153]}},{"code":"01454","nom":"Virignin","codeDepartement":"01","centre":{"type":"Point","coordinates":[5.7149,45.7282]}},{"code":"01456","nom":"Vongnes","codeDepartement":"01","centre":{"type":"Point","coordinates":[5.7255,45.8122]}},{"code":"01457","nom":"Vonnas","codeDepartement":"01","centre":{"type":"Point","coordinates":[4.9945,46.2132]}},{"code":"02001","nom":"Abbécourt","codeDepartement":"02","centre":{"type":"Point","coordinates":[3.1824,49.5997]}},{"code":"02002","nom":"Achery","codeDepartement":"02","centre":{"type":"Point","coordinates":[3.3974,49.6935]}},{"code":"02003","nom":"Acy","codeDepartement":"02","centre":{"type":"Point","coordinates":[3.4188,49.3476]}},{"code":"02004","nom":"Agnicourt-et-Séchelles","codeDepartement":"02","centre":{"type":"Point","coordinates":[3.9637,49.7172]}},{"code":"02005","nom":"Aguilcourt","codeDepartement":"02","centre":{"type":"Point","coordinates":[3.9663,49.3953]}},{"code":"02006","nom":"Aisonville-et-Bernoville","codeDepartement":"02","centre":{"type":"Point","coordinates":[3.5121,49.9313]}},{"code":"02007","nom":"Aizelles","codeDepartement":"02","centre":{"type":"Point","coordinates":[3.8211,49.4865]}},{"code":"02008","nom":"Aizy-Jouy","codeDepartement":"02","centre":{"type":"Point","coordinates":[3.5128,49.4372]}},{"code":"02009","nom":"Alaincourt","codeDepartement":"02","centre":{"type":"Point","coordinates":[3.3692,49.7681]}},{"code":"02010","nom":"Allemant","codeDepartement":"02","centre":{"type":"Point","coordinates":[3.4591,49.4639]}},{"code":"02011","nom":"Ambleny","codeDepartement":"02","centre":{"type":"Point","coordinates":[3.1681,49.3741]}},{"code":"02012","nom":"Ambrief","codeDepartement":"02","centre":{"type":"Point","coordinates":[3.4058,49.3226]}},{"code":"02013","nom":"Amifontaine","codeDepartement":"02","centre":{"type":"Point","coordinates":[3.9218,49.4977]}},{"code":"02014","nom":"Amigny-Rouy","codeDepartement":"02","centre":{"type":"Point","coordinates":[3.3059,49.6111]}},{"code":"02015","nom":"Ancienville","codeDepartement":"02","centre":{"type":"Point","coordinates":[3.2065,49.2196]}},{"code":"02016","nom":"Andelain","codeDepartement":"02","centre":{"type":"Point","coordinates":[3.3686,49.6428]}},{"code":"02017","nom":"Anguilcourt-le-Sart","codeDepartement":"02","centre":{"type":"Point","coordinates":[3.424,49.6971]}},{"code":"02018","nom":"Anizy-le-Grand","codeDepartement":"02","centre":{"type":"Point","coordinates":[3.4426,49.5159]}},{"code":"02019","nom":"Annois","codeDepartement":"02","centre":{"type":"Point","coordinates":[3.1761,49.7122]}},{"code":"02020","nom":"Any-Martin-Rieux","codeDepartement":"02","centre":{"type":"Point","coordinates":[4.219,49.8851]}},{"code":"02021","nom":"Archon","codeDepartement":"02","centre":{"type":"Point","coordinates":[4.1176,49.7444]}},{"code":"02022","nom":"Arcy-Sainte-Restitue","codeDepartement":"02","centre":{"type":"Point","coordinates":[3.4776,49.2557]}},{"code":"02023","nom":"Armentières-sur-Ourcq","codeDepartement":"02","centre":{"type":"Point","coordinates":[3.3916,49.1731]}},{"code":"02024","nom":"Arrancy","codeDepartement":"02","centre":{"type":"Point","coordinates":[3.7647,49.4985]}},{"code":"02025","nom":"Artemps","codeDepartement":"02","centre":{"type":"Point","coordinates":[3.196,49.7623]}},{"code":"02027","nom":"Assis-sur-Serre","codeDepartement":"02","centre":{"type":"Point","coordinates":[3.5547,49.6788]}},{"code":"02028","nom":"Athies-sous-Laon","codeDepartement":"02","centre":{"type":"Point","coordinates":[3.6905,49.5754]}},{"code":"02029","nom":"Attilly","codeDepartement":"02","centre":{"type":"Point","coordinates":[3.1533,49.8557]}},{"code":"02030","nom":"Aubencheul-aux-Bois","codeDepartement":"02","centre":{"type":"Point","coordinates":[3.2614,50.0248]}},{"code":"02031","nom":"Aubenton","codeDepartement":"02","centre":{"type":"Point","coordinates":[4.1928,49.8254]}},{"code":"02032","nom":"Aubigny-aux-Kaisnes","codeDepartement":"02","centre":{"type":"Point","coordinates":[3.1167,49.7724]}},{"code":"02033","nom":"Aubigny-en-Laonnois","codeDepartement":"02","centre":{"type":"Point","coordinates":[3.7921,49.495]}},{"code":"02034","nom":"Audignicourt","codeDepartement":"02","centre":{"type":"Point","coordinates":[3.1268,49.4779]}},{"code":"02035","nom":"Audigny","codeDepartement":"02","centre":{"type":"Point","coordinates":[3.6314,49.8651]}},{"code":"02036","nom":"Augy","codeDepartement":"02","centre":{"type":"Point","coordinates":[3.5117,49.3405]}},{"code":"02037","nom":"Aulnois-sous-Laon","codeDepartement":"02","centre":{"type":"Point","coordinates":[3.6111,49.6213]}},{"code":"02038","nom":"Les Autels","codeDepartement":"02","centre":{"type":"Point","coordinates":[4.224,49.7603]}},{"code":"02039","nom":"Autremencourt","codeDepartement":"02","centre":{"type":"Point","coordinates":[3.7931,49.7042]}},{"code":"02040","nom":"Autreppes","codeDepartement":"02","centre":{"type":"Point","coordinates":[3.8571,49.8963]}},{"code":"02041","nom":"Autreville","codeDepartement":"02","centre":{"type":"Point","coordinates":[3.2378,49.5878]}},{"code":"02042","nom":"Azy-sur-Marne","codeDepartement":"02","centre":{"type":"Point","coordinates":[3.3575,49.0061]}},{"code":"02043","nom":"Bagneux","codeDepartement":"02","centre":{"type":"Point","coordinates":[3.2776,49.4595]}},{"code":"02044","nom":"Bancigny","codeDepartement":"02","centre":{"type":"Point","coordinates":[4.0383,49.7997]}},{"code":"02046","nom":"Barenton-Bugny","codeDepartement":"02","centre":{"type":"Point","coordinates":[3.6612,49.6217]}},{"code":"02047","nom":"Barenton-Cel","codeDepartement":"02","centre":{"type":"Point","coordinates":[3.6448,49.6466]}},{"code":"02048","nom":"Barenton-sur-Serre","codeDepartement":"02","centre":{"type":"Point","coordinates":[3.6929,49.6682]}},{"code":"02049","nom":"Barisis-aux-Bois","codeDepartement":"02","centre":{"type":"Point","coordinates":[3.332,49.5814]}},{"code":"02050","nom":"Barzy-en-Thiérache","codeDepartement":"02","centre":{"type":"Point","coordinates":[3.7522,50.0378]}},{"code":"02051","nom":"Barzy-sur-Marne","codeDepartement":"02","centre":{"type":"Point","coordinates":[3.5586,49.09]}},{"code":"02052","nom":"Bassoles-Aulers","codeDepartement":"02","centre":{"type":"Point","coordinates":[3.3828,49.5328]}},{"code":"02053","nom":"Vallées en Champagne","codeDepartement":"02","centre":{"type":"Point","coordinates":[3.6203,49.0009]}},{"code":"02054","nom":"Bazoches-et-Saint-Thibaut","codeDepartement":"02","centre":{"type":"Point","coordinates":[3.6184,49.2991]}},{"code":"02055","nom":"Beaumé","codeDepartement":"02","centre":{"type":"Point","coordinates":[4.1529,49.8187]}},{"code":"02056","nom":"Beaumont-en-Beine","codeDepartement":"02","centre":{"type":"Point","coordinates":[3.1317,49.6876]}},{"code":"02057","nom":"Beaurevoir","codeDepartement":"02","centre":{"type":"Point","coordinates":[3.332,49.9965]}},{"code":"02058","nom":"Beaurieux","codeDepartement":"02","centre":{"type":"Point","coordinates":[3.7594,49.4029]}},{"code":"02059","nom":"Beautor","codeDepartement":"02","centre":{"type":"Point","coordinates":[3.3361,49.6472]}},{"code":"02060","nom":"Beauvois-en-Vermandois","codeDepartement":"02","centre":{"type":"Point","coordinates":[3.1023,49.8331]}},{"code":"02061","nom":"Becquigny","codeDepartement":"02","centre":{"type":"Point","coordinates":[3.458,50.0143]}},{"code":"02062","nom":"Belleau","codeDepartement":"02","centre":{"type":"Point","coordinates":[3.3036,49.0803]}},{"code":"02063","nom":"Bellenglise","codeDepartement":"02","centre":{"type":"Point","coordinates":[3.2431,49.9241]}},{"code":"02064","nom":"Belleu","codeDepartement":"02","centre":{"type":"Point","coordinates":[3.3439,49.3597]}},{"code":"02065","nom":"Bellicourt","codeDepartement":"02","centre":{"type":"Point","coordinates":[3.2284,49.9581]}},{"code":"02066","nom":"Benay","codeDepartement":"02","centre":{"type":"Point","coordinates":[3.3076,49.7556]}},{"code":"02067","nom":"Bergues-sur-Sambre","codeDepartement":"02","centre":{"type":"Point","coordinates":[3.7114,50.03]}},{"code":"02068","nom":"Berlancourt","codeDepartement":"02","centre":{"type":"Point","coordinates":[3.757,49.7799]}},{"code":"02069","nom":"Berlise","codeDepartement":"02","centre":{"type":"Point","coordinates":[4.1104,49.6628]}},{"code":"02070","nom":"Bernot","codeDepartement":"02","centre":{"type":"Point","coordinates":[3.4827,49.8827]}},{"code":"02071","nom":"Berny-Rivière","codeDepartement":"02","centre":{"type":"Point","coordinates":[3.152,49.4118]}},{"code":"02072","nom":"Berrieux","codeDepartement":"02","centre":{"type":"Point","coordinates":[3.8531,49.4828]}},{"code":"02073","nom":"Berry-au-Bac","codeDepartement":"02","centre":{"type":"Point","coordinates":[3.8947,49.4076]}},{"code":"02074","nom":"Bertaucourt-Epourdon","codeDepartement":"02","centre":{"type":"Point","coordinates":[3.3988,49.6283]}},{"code":"02075","nom":"Berthenicourt","codeDepartement":"02","centre":{"type":"Point","coordinates":[3.373,49.7787]}},{"code":"02076","nom":"Bertricourt","codeDepartement":"02","centre":{"type":"Point","coordinates":[4.0116,49.3975]}},{"code":"02078","nom":"Besmé","codeDepartement":"02","centre":{"type":"Point","coordinates":[3.1657,49.5348]}},{"code":"02079","nom":"Besmont","codeDepartement":"02","centre":{"type":"Point","coordinates":[4.116,49.8209]}},{"code":"02080","nom":"Besny-et-Loizy","codeDepartement":"02","centre":{"type":"Point","coordinates":[3.5778,49.5914]}},{"code":"02081","nom":"Béthancourt-en-Vaux","codeDepartement":"02","centre":{"type":"Point","coordinates":[3.1376,49.6274]}},{"code":"02082","nom":"Beugneux","codeDepartement":"02","centre":{"type":"Point","coordinates":[3.4187,49.2243]}},{"code":"02083","nom":"Beuvardes","codeDepartement":"02","centre":{"type":"Point","coordinates":[3.4884,49.1278]}},{"code":"02084","nom":"Bézu-le-Guéry","codeDepartement":"02","centre":{"type":"Point","coordinates":[3.2283,49.0101]}},{"code":"02085","nom":"Bézu-Saint-Germain","codeDepartement":"02","centre":{"type":"Point","coordinates":[3.4082,49.1045]}},{"code":"02086","nom":"Bichancourt","codeDepartement":"02","centre":{"type":"Point","coordinates":[3.2135,49.5787]}},{"code":"02087","nom":"Bieuxy","codeDepartement":"02","centre":{"type":"Point","coordinates":[3.2687,49.4469]}},{"code":"02088","nom":"Bièvres","codeDepartement":"02","centre":{"type":"Point","coordinates":[3.7141,49.4923]}},{"code":"02089","nom":"Billy-sur-Aisne","codeDepartement":"02","centre":{"type":"Point","coordinates":[3.3753,49.3555]}},{"code":"02090","nom":"Billy-sur-Ourcq","codeDepartement":"02","centre":{"type":"Point","coordinates":[3.301,49.2233]}},{"code":"02091","nom":"Blanzy-lès-Fismes","codeDepartement":"02","centre":{"type":"Point","coordinates":[3.6702,49.3378]}},{"code":"02093","nom":"Blérancourt","codeDepartement":"02","centre":{"type":"Point","coordinates":[3.149,49.51]}},{"code":"02094","nom":"Blesmes","codeDepartement":"02","centre":{"type":"Point","coordinates":[3.4628,49.0258]}},{"code":"02095","nom":"Bohain-en-Vermandois","codeDepartement":"02","centre":{"type":"Point","coordinates":[3.464,49.9887]}},{"code":"02096","nom":"Bois-lès-Pargny","codeDepartement":"02","centre":{"type":"Point","coordinates":[3.6567,49.7383]}},{"code":"02097","nom":"Boncourt","codeDepartement":"02","centre":{"type":"Point","coordinates":[3.9553,49.6287]}},{"code":"02098","nom":"Bonneil","codeDepartement":"02","centre":{"type":"Point","coordinates":[3.3476,49.0077]}},{"code":"02099","nom":"Bonnesvalyn","codeDepartement":"02","centre":{"type":"Point","coordinates":[3.3273,49.1235]}},{"code":"02100","nom":"Bony","codeDepartement":"02","centre":{"type":"Point","coordinates":[3.218,49.9896]}},{"code":"02101","nom":"Bosmont-sur-Serre","codeDepartement":"02","centre":{"type":"Point","coordinates":[3.8664,49.7381]}},{"code":"02102","nom":"Bouconville-Vauclair","codeDepartement":"02","centre":{"type":"Point","coordinates":[3.7609,49.4606]}},{"code":"02103","nom":"Boué","codeDepartement":"02","centre":{"type":"Point","coordinates":[3.7126,50.0101]}},{"code":"02104","nom":"Bouffignereux","codeDepartement":"02","centre":{"type":"Point","coordinates":[3.847,49.3776]}},{"code":"02105","nom":"Bouresches","codeDepartement":"02","centre":{"type":"Point","coordinates":[3.3191,49.0665]}},{"code":"02106","nom":"Bourg-et-Comin","codeDepartement":"02","centre":{"type":"Point","coordinates":[3.6565,49.4038]}},{"code":"02107","nom":"Bourguignon-sous-Coucy","codeDepartement":"02","centre":{"type":"Point","coordinates":[3.1579,49.5417]}},{"code":"02108","nom":"Bourguignon-sous-Montbavin","codeDepartement":"02","centre":{"type":"Point","coordinates":[3.5389,49.528]}},{"code":"02109","nom":"La Bouteille","codeDepartement":"02","centre":{"type":"Point","coordinates":[3.9602,49.8738]}},{"code":"02110","nom":"Braine","codeDepartement":"02","centre":{"type":"Point","coordinates":[3.5357,49.3488]}},{"code":"02111","nom":"Brancourt-en-Laonnois","codeDepartement":"02","centre":{"type":"Point","coordinates":[3.4128,49.517]}},{"code":"02112","nom":"Brancourt-le-Grand","codeDepartement":"02","centre":{"type":"Point","coordinates":[3.3956,49.9798]}},{"code":"02114","nom":"Brasles","codeDepartement":"02","centre":{"type":"Point","coordinates":[3.4195,49.0579]}},{"code":"02115","nom":"Braye-en-Laonnois","codeDepartement":"02","centre":{"type":"Point","coordinates":[3.6096,49.437]}},{"code":"02116","nom":"Braye-en-Thiérache","codeDepartement":"02","centre":{"type":"Point","coordinates":[3.9623,49.7665]}},{"code":"02117","nom":"Bray-Saint-Christophe","codeDepartement":"02","centre":{"type":"Point","coordinates":[3.142,49.7738]}},{"code":"02118","nom":"Braye","codeDepartement":"02","centre":{"type":"Point","coordinates":[3.3769,49.4222]}},{"code":"02119","nom":"Brécy","codeDepartement":"02","centre":{"type":"Point","coordinates":[3.4263,49.1402]}},{"code":"02120","nom":"Brenelle","codeDepartement":"02","centre":{"type":"Point","coordinates":[3.5459,49.3694]}},{"code":"02121","nom":"Breny","codeDepartement":"02","centre":{"type":"Point","coordinates":[3.3513,49.1826]}},{"code":"02122","nom":"Brie","codeDepartement":"02","centre":{"type":"Point","coordinates":[3.4722,49.5992]}},{"code":"02123","nom":"Brissay-Choigny","codeDepartement":"02","centre":{"type":"Point","coordinates":[3.4042,49.7224]}},{"code":"02124","nom":"Brissy-Hamégicourt","codeDepartement":"02","centre":{"type":"Point","coordinates":[3.4011,49.7458]}},{"code":"02125","nom":"Brumetz","codeDepartement":"02","centre":{"type":"Point","coordinates":[3.1528,49.1124]}},{"code":"02126","nom":"Brunehamel","codeDepartement":"02","centre":{"type":"Point","coordinates":[4.188,49.7686]}},{"code":"02127","nom":"Bruyères-sur-Fère","codeDepartement":"02","centre":{"type":"Point","coordinates":[3.445,49.1994]}},{"code":"02128","nom":"Bruyères-et-Montbérault","codeDepartement":"02","centre":{"type":"Point","coordinates":[3.6698,49.5184]}},{"code":"02129","nom":"Bruys","codeDepartement":"02","centre":{"type":"Point","coordinates":[3.5669,49.2595]}},{"code":"02130","nom":"Bucilly","codeDepartement":"02","centre":{"type":"Point","coordinates":[4.0938,49.8636]}},{"code":"02131","nom":"Bucy-le-Long","codeDepartement":"02","centre":{"type":"Point","coordinates":[3.3923,49.39]}},{"code":"02132","nom":"Bucy-lès-Cerny","codeDepartement":"02","centre":{"type":"Point","coordinates":[3.493,49.5799]}},{"code":"02133","nom":"Bucy-lès-Pierrepont","codeDepartement":"02","centre":{"type":"Point","coordinates":[3.904,49.6494]}},{"code":"02134","nom":"Buire","codeDepartement":"02","centre":{"type":"Point","coordinates":[4.0561,49.908]}},{"code":"02135","nom":"Buironfosse","codeDepartement":"02","centre":{"type":"Point","coordinates":[3.8371,49.958]}},{"code":"02136","nom":"Burelles","codeDepartement":"02","centre":{"type":"Point","coordinates":[3.9148,49.7702]}},{"code":"02137","nom":"Bussiares","codeDepartement":"02","centre":{"type":"Point","coordinates":[3.2501,49.0749]}},{"code":"02138","nom":"Buzancy","codeDepartement":"02","centre":{"type":"Point","coordinates":[3.3487,49.3086]}},{"code":"02139","nom":"Caillouël-Crépigny","codeDepartement":"02","centre":{"type":"Point","coordinates":[3.1226,49.6174]}},{"code":"02140","nom":"Camelin","codeDepartement":"02","centre":{"type":"Point","coordinates":[3.1243,49.5244]}},{"code":"02141","nom":"La Capelle","codeDepartement":"02","centre":{"type":"Point","coordinates":[3.9146,49.9705]}},{"code":"02142","nom":"Castres","codeDepartement":"02","centre":{"type":"Point","coordinates":[3.2576,49.803]}},{"code":"02143","nom":"Le Catelet","codeDepartement":"02","centre":{"type":"Point","coordinates":[3.2425,50.0008]}},{"code":"02144","nom":"Caulaincourt","codeDepartement":"02","centre":{"type":"Point","coordinates":[3.1078,49.8646]}},{"code":"02145","nom":"Caumont","codeDepartement":"02","centre":{"type":"Point","coordinates":[3.173,49.6374]}},{"code":"02146","nom":"Celles-lès-Condé","codeDepartement":"02","centre":{"type":"Point","coordinates":[3.5703,49.0158]}},{"code":"02148","nom":"Celles-sur-Aisne","codeDepartement":"02","centre":{"type":"Point","coordinates":[3.4701,49.4135]}},{"code":"02149","nom":"Cerizy","codeDepartement":"02","centre":{"type":"Point","coordinates":[3.3346,49.7667]}},{"code":"02150","nom":"Cerny-en-Laonnois","codeDepartement":"02","centre":{"type":"Point","coordinates":[3.6803,49.4492]}},{"code":"02151","nom":"Cerny-lès-Bucy","codeDepartement":"02","centre":{"type":"Point","coordinates":[3.5466,49.5791]}},{"code":"02152","nom":"Cerseuil","codeDepartement":"02","centre":{"type":"Point","coordinates":[3.5175,49.3259]}},{"code":"02153","nom":"Cessières-Suzy","codeDepartement":"02","centre":{"type":"Point","coordinates":[3.4817,49.5575]}},{"code":"02154","nom":"Chacrise","codeDepartement":"02","centre":{"type":"Point","coordinates":[3.3964,49.3008]}},{"code":"02155","nom":"Chaillevois","codeDepartement":"02","centre":{"type":"Point","coordinates":[3.5233,49.5087]}},{"code":"02156","nom":"Chalandry","codeDepartement":"02","centre":{"type":"Point","coordinates":[3.6474,49.6691]}},{"code":"02157","nom":"Chambry","codeDepartement":"02","centre":{"type":"Point","coordinates":[3.6719,49.5985]}},{"code":"02158","nom":"Chamouille","codeDepartement":"02","centre":{"type":"Point","coordinates":[3.671,49.4723]}},{"code":"02159","nom":"Champs","codeDepartement":"02","centre":{"type":"Point","coordinates":[3.257,49.538]}},{"code":"02160","nom":"Chaourse","codeDepartement":"02","centre":{"type":"Point","coordinates":[3.9837,49.703]}},{"code":"02162","nom":"La Chapelle-sur-Chézy","codeDepartement":"02","centre":{"type":"Point","coordinates":[3.375,48.9495]}},{"code":"02163","nom":"Charly-sur-Marne","codeDepartement":"02","centre":{"type":"Point","coordinates":[3.2936,48.9821]}},{"code":"02164","nom":"Le Charmel","codeDepartement":"02","centre":{"type":"Point","coordinates":[3.5446,49.1106]}},{"code":"02165","nom":"Charmes","codeDepartement":"02","centre":{"type":"Point","coordinates":[3.3834,49.6524]}},{"code":"02166","nom":"Chartèves","codeDepartement":"02","centre":{"type":"Point","coordinates":[3.504,49.0894]}},{"code":"02167","nom":"Chassemy","codeDepartement":"02","centre":{"type":"Point","coordinates":[3.5046,49.3778]}},{"code":"02168","nom":"Château-Thierry","codeDepartement":"02","centre":{"type":"Point","coordinates":[3.3784,49.0556]}},{"code":"02169","nom":"Châtillon-lès-Sons","codeDepartement":"02","centre":{"type":"Point","coordinates":[3.6986,49.7629]}},{"code":"02170","nom":"Châtillon-sur-Oise","codeDepartement":"02","centre":{"type":"Point","coordinates":[3.4173,49.7951]}},{"code":"02171","nom":"Chaudardes","codeDepartement":"02","centre":{"type":"Point","coordinates":[3.788,49.3968]}},{"code":"02172","nom":"Chaudun","codeDepartement":"02","centre":{"type":"Point","coordinates":[3.2508,49.3141]}},{"code":"02173","nom":"Chauny","codeDepartement":"02","centre":{"type":"Point","coordinates":[3.2192,49.6185]}},{"code":"02174","nom":"Chavignon","codeDepartement":"02","centre":{"type":"Point","coordinates":[3.5155,49.4782]}},{"code":"02175","nom":"Chavigny","codeDepartement":"02","centre":{"type":"Point","coordinates":[3.309,49.4229]}},{"code":"02176","nom":"Chavonne","codeDepartement":"02","centre":{"type":"Point","coordinates":[3.5614,49.4081]}},{"code":"02177","nom":"Chérêt","codeDepartement":"02","centre":{"type":"Point","coordinates":[3.6878,49.5147]}},{"code":"02178","nom":"Chermizy-Ailles","codeDepartement":"02","centre":{"type":"Point","coordinates":[3.7196,49.464]}},{"code":"02179","nom":"Chéry-Chartreuve","codeDepartement":"02","centre":{"type":"Point","coordinates":[3.6081,49.2529]}},{"code":"02180","nom":"Chéry-lès-Pouilly","codeDepartement":"02","centre":{"type":"Point","coordinates":[3.5886,49.6479]}},{"code":"02181","nom":"Chéry-lès-Rozoy","codeDepartement":"02","centre":{"type":"Point","coordinates":[4.1026,49.7245]}},{"code":"02182","nom":"Chevennes","codeDepartement":"02","centre":{"type":"Point","coordinates":[3.7386,49.8196]}},{"code":"02183","nom":"Chevregny","codeDepartement":"02","centre":{"type":"Point","coordinates":[3.595,49.47]}},{"code":"02184","nom":"Chevresis-Monceau","codeDepartement":"02","centre":{"type":"Point","coordinates":[3.5843,49.7657]}},{"code":"02185","nom":"Chézy-en-Orxois","codeDepartement":"02","centre":{"type":"Point","coordinates":[3.1565,49.1247]}},{"code":"02186","nom":"Chézy-sur-Marne","codeDepartement":"02","centre":{"type":"Point","coordinates":[3.3882,48.9857]}},{"code":"02187","nom":"Chierry","codeDepartement":"02","centre":{"type":"Point","coordinates":[3.4321,49.0326]}},{"code":"02188","nom":"Chigny","codeDepartement":"02","centre":{"type":"Point","coordinates":[3.7728,49.9291]}},{"code":"02189","nom":"Chivres-en-Laonnois","codeDepartement":"02","centre":{"type":"Point","coordinates":[3.8576,49.6256]}},{"code":"02190","nom":"Chivres-Val","codeDepartement":"02","centre":{"type":"Point","coordinates":[3.4371,49.4048]}},{"code":"02191","nom":"Chivy-lès-Étouvelles","codeDepartement":"02","centre":{"type":"Point","coordinates":[3.5838,49.5334]}},{"code":"02192","nom":"Chouy","codeDepartement":"02","centre":{"type":"Point","coordinates":[3.2433,49.2154]}},{"code":"02193","nom":"Cierges","codeDepartement":"02","centre":{"type":"Point","coordinates":[3.6022,49.1659]}},{"code":"02194","nom":"Cilly","codeDepartement":"02","centre":{"type":"Point","coordinates":[3.8421,49.7473]}},{"code":"02195","nom":"Ciry-Salsogne","codeDepartement":"02","centre":{"type":"Point","coordinates":[3.4664,49.3693]}},{"code":"02196","nom":"Clacy-et-Thierret","codeDepartement":"02","centre":{"type":"Point","coordinates":[3.5651,49.5546]}},{"code":"02197","nom":"Clairfontaine","codeDepartement":"02","centre":{"type":"Point","coordinates":[3.9919,49.969]}},{"code":"02198","nom":"Clamecy","codeDepartement":"02","centre":{"type":"Point","coordinates":[3.3654,49.4274]}},{"code":"02199","nom":"Clastres","codeDepartement":"02","centre":{"type":"Point","coordinates":[3.228,49.7491]}},{"code":"02200","nom":"Clermont-les-Fermes","codeDepartement":"02","centre":{"type":"Point","coordinates":[3.9448,49.6602]}},{"code":"02201","nom":"Cœuvres-et-Valsery","codeDepartement":"02","centre":{"type":"Point","coordinates":[3.1496,49.324]}},{"code":"02203","nom":"Coincy","codeDepartement":"02","centre":{"type":"Point","coordinates":[3.4331,49.1548]}},{"code":"02204","nom":"Coingt","codeDepartement":"02","centre":{"type":"Point","coordinates":[4.0956,49.7928]}},{"code":"02205","nom":"Colligis-Crandelain","codeDepartement":"02","centre":{"type":"Point","coordinates":[3.628,49.4696]}},{"code":"02206","nom":"Colonfay","codeDepartement":"02","centre":{"type":"Point","coordinates":[3.7117,49.8575]}},{"code":"02207","nom":"Commenchon","codeDepartement":"02","centre":{"type":"Point","coordinates":[3.1488,49.6415]}},{"code":"02208","nom":"Concevreux","codeDepartement":"02","centre":{"type":"Point","coordinates":[3.7828,49.3781]}},{"code":"02209","nom":"Condé-en-Brie","codeDepartement":"02","centre":{"type":"Point","coordinates":[3.5602,48.9999]}},{"code":"02210","nom":"Condé-sur-Aisne","codeDepartement":"02","centre":{"type":"Point","coordinates":[3.4684,49.4014]}},{"code":"02211","nom":"Condé-sur-Suippe","codeDepartement":"02","centre":{"type":"Point","coordinates":[3.9447,49.4147]}},{"code":"02212","nom":"Condren","codeDepartement":"02","centre":{"type":"Point","coordinates":[3.2767,49.6332]}},{"code":"02213","nom":"Connigis","codeDepartement":"02","centre":{"type":"Point","coordinates":[3.532,49.0357]}},{"code":"02214","nom":"Contescourt","codeDepartement":"02","centre":{"type":"Point","coordinates":[3.2343,49.7921]}},{"code":"02215","nom":"Corbeny","codeDepartement":"02","centre":{"type":"Point","coordinates":[3.8256,49.4613]}},{"code":"02216","nom":"Corcy","codeDepartement":"02","centre":{"type":"Point","coordinates":[3.1957,49.2528]}},{"code":"02217","nom":"Coucy-le-Château-Auffrique","codeDepartement":"02","centre":{"type":"Point","coordinates":[3.3178,49.514]}},{"code":"02218","nom":"Coucy-lès-Eppes","codeDepartement":"02","centre":{"type":"Point","coordinates":[3.7811,49.556]}},{"code":"02219","nom":"Coucy-la-Ville","codeDepartement":"02","centre":{"type":"Point","coordinates":[3.3413,49.5414]}},{"code":"02220","nom":"Coulonges-Cohan","codeDepartement":"02","centre":{"type":"Point","coordinates":[3.6238,49.1958]}},{"code":"02221","nom":"Coupru","codeDepartement":"02","centre":{"type":"Point","coordinates":[3.2749,49.0304]}},{"code":"02222","nom":"Courbes","codeDepartement":"02","centre":{"type":"Point","coordinates":[3.4567,49.6804]}},{"code":"02223","nom":"Courboin","codeDepartement":"02","centre":{"type":"Point","coordinates":[3.5127,48.9956]}},{"code":"02224","nom":"Courcelles-sur-Vesle","codeDepartement":"02","centre":{"type":"Point","coordinates":[3.576,49.3464]}},{"code":"02225","nom":"Courchamps","codeDepartement":"02","centre":{"type":"Point","coordinates":[3.261,49.1152]}},{"code":"02226","nom":"Courmelles","codeDepartement":"02","centre":{"type":"Point","coordinates":[3.2994,49.3456]}},{"code":"02227","nom":"Courmont","codeDepartement":"02","centre":{"type":"Point","coordinates":[3.5712,49.1411]}},{"code":"02228","nom":"Courtemont-Varennes","codeDepartement":"02","centre":{"type":"Point","coordinates":[3.5414,49.0719]}},{"code":"02229","nom":"Courtrizy-et-Fussigny","codeDepartement":"02","centre":{"type":"Point","coordinates":[3.7953,49.5152]}},{"code":"02230","nom":"Couvrelles","codeDepartement":"02","centre":{"type":"Point","coordinates":[3.485,49.3328]}},{"code":"02231","nom":"Couvron-et-Aumencourt","codeDepartement":"02","centre":{"type":"Point","coordinates":[3.515,49.6464]}},{"code":"02232","nom":"Coyolles","codeDepartement":"02","centre":{"type":"Point","coordinates":[3.021,49.216]}},{"code":"02233","nom":"Cramaille","codeDepartement":"02","centre":{"type":"Point","coordinates":[3.4555,49.2269]}},{"code":"02234","nom":"Craonne","codeDepartement":"02","centre":{"type":"Point","coordinates":[3.7947,49.4491]}},{"code":"02235","nom":"Craonnelle","codeDepartement":"02","centre":{"type":"Point","coordinates":[3.7755,49.4251]}},{"code":"02236","nom":"Crécy-au-Mont","codeDepartement":"02","centre":{"type":"Point","coordinates":[3.3141,49.4846]}},{"code":"02237","nom":"Crécy-sur-Serre","codeDepartement":"02","centre":{"type":"Point","coordinates":[3.6188,49.693]}},{"code":"02238","nom":"Crépy","codeDepartement":"02","centre":{"type":"Point","coordinates":[3.5088,49.6089]}},{"code":"02239","nom":"Crézancy","codeDepartement":"02","centre":{"type":"Point","coordinates":[3.5169,49.0405]}},{"code":"02240","nom":"Croix-Fonsomme","codeDepartement":"02","centre":{"type":"Point","coordinates":[3.3937,49.9329]}},{"code":"02241","nom":"La Croix-sur-Ourcq","codeDepartement":"02","centre":{"type":"Point","coordinates":[3.3502,49.1589]}},{"code":"02242","nom":"Crouttes-sur-Marne","codeDepartement":"02","centre":{"type":"Point","coordinates":[3.247,48.9775]}},{"code":"02243","nom":"Crouy","codeDepartement":"02","centre":{"type":"Point","coordinates":[3.3684,49.4073]}},{"code":"02244","nom":"Crupilly","codeDepartement":"02","centre":{"type":"Point","coordinates":[3.7555,49.9299]}},{"code":"02245","nom":"Cuffies","codeDepartement":"02","centre":{"type":"Point","coordinates":[3.3197,49.4086]}},{"code":"02246","nom":"Cugny","codeDepartement":"02","centre":{"type":"Point","coordinates":[3.1518,49.7097]}},{"code":"02248","nom":"Cuirieux","codeDepartement":"02","centre":{"type":"Point","coordinates":[3.8206,49.6835]}},{"code":"02249","nom":"Cuiry-Housse","codeDepartement":"02","centre":{"type":"Point","coordinates":[3.4903,49.2886]}},{"code":"02250","nom":"Cuiry-lès-Chaudardes","codeDepartement":"02","centre":{"type":"Point","coordinates":[3.7621,49.3919]}},{"code":"02251","nom":"Cuiry-lès-Iviers","codeDepartement":"02","centre":{"type":"Point","coordinates":[4.1045,49.7661]}},{"code":"02252","nom":"Cuissy-et-Geny","codeDepartement":"02","centre":{"type":"Point","coordinates":[3.7056,49.4013]}},{"code":"02253","nom":"Cuisy-en-Almont","codeDepartement":"02","centre":{"type":"Point","coordinates":[3.2452,49.422]}},{"code":"02254","nom":"Cutry","codeDepartement":"02","centre":{"type":"Point","coordinates":[3.1907,49.345]}},{"code":"02255","nom":"Cys-la-Commune","codeDepartement":"02","centre":{"type":"Point","coordinates":[3.5717,49.3838]}},{"code":"02256","nom":"Dagny-Lambercy","codeDepartement":"02","centre":{"type":"Point","coordinates":[4.0437,49.7685]}},{"code":"02257","nom":"Dallon","codeDepartement":"02","centre":{"type":"Point","coordinates":[3.2327,49.8249]}},{"code":"02258","nom":"Dammard","codeDepartement":"02","centre":{"type":"Point","coordinates":[3.1723,49.146]}},{"code":"02259","nom":"Dampleux","codeDepartement":"02","centre":{"type":"Point","coordinates":[3.1471,49.2408]}},{"code":"02260","nom":"Danizy","codeDepartement":"02","centre":{"type":"Point","coordinates":[3.4037,49.6658]}},{"code":"02261","nom":"Dercy","codeDepartement":"02","centre":{"type":"Point","coordinates":[3.6847,49.7127]}},{"code":"02262","nom":"Deuillet","codeDepartement":"02","centre":{"type":"Point","coordinates":[3.3571,49.6271]}},{"code":"02263","nom":"Dhuizel","codeDepartement":"02","centre":{"type":"Point","coordinates":[3.6148,49.3591]}},{"code":"02264","nom":"Dizy-le-Gros","codeDepartement":"02","centre":{"type":"Point","coordinates":[4.0171,49.6351]}},{"code":"02265","nom":"Dohis","codeDepartement":"02","centre":{"type":"Point","coordinates":[4.1421,49.766]}},{"code":"02266","nom":"Dolignon","codeDepartement":"02","centre":{"type":"Point","coordinates":[4.0873,49.7295]}},{"code":"02267","nom":"Dommiers","codeDepartement":"02","centre":{"type":"Point","coordinates":[3.2165,49.3314]}},{"code":"02268","nom":"Domptin","codeDepartement":"02","centre":{"type":"Point","coordinates":[3.2705,49.0151]}},{"code":"02269","nom":"Dorengt","codeDepartement":"02","centre":{"type":"Point","coordinates":[3.7014,49.9656]}},{"code":"02270","nom":"Douchy","codeDepartement":"02","centre":{"type":"Point","coordinates":[3.1296,49.7959]}},{"code":"02271","nom":"Dravegny","codeDepartement":"02","centre":{"type":"Point","coordinates":[3.6395,49.2425]}},{"code":"02272","nom":"Droizy","codeDepartement":"02","centre":{"type":"Point","coordinates":[3.3864,49.2746]}},{"code":"02273","nom":"Dury","codeDepartement":"02","centre":{"type":"Point","coordinates":[3.1322,49.7516]}},{"code":"02274","nom":"Ébouleau","codeDepartement":"02","centre":{"type":"Point","coordinates":[3.8871,49.6783]}},{"code":"02275","nom":"Effry","codeDepartement":"02","centre":{"type":"Point","coordinates":[3.9879,49.9191]}},{"code":"02276","nom":"Englancourt","codeDepartement":"02","centre":{"type":"Point","coordinates":[3.8081,49.9251]}},{"code":"02277","nom":"Épagny","codeDepartement":"02","centre":{"type":"Point","coordinates":[3.2565,49.4729]}},{"code":"02278","nom":"Éparcy","codeDepartement":"02","centre":{"type":"Point","coordinates":[4.071,49.8853]}},{"code":"02279","nom":"Épaux-Bézu","codeDepartement":"02","centre":{"type":"Point","coordinates":[3.3563,49.1022]}},{"code":"02280","nom":"Épieds","codeDepartement":"02","centre":{"type":"Point","coordinates":[3.4579,49.1023]}},{"code":"02281","nom":"L'Épine-aux-Bois","codeDepartement":"02","centre":{"type":"Point","coordinates":[3.4452,48.8988]}},{"code":"02282","nom":"Eppes","codeDepartement":"02","centre":{"type":"Point","coordinates":[3.7397,49.5509]}},{"code":"02283","nom":"Erlon","codeDepartement":"02","centre":{"type":"Point","coordinates":[3.7073,49.733]}},{"code":"02284","nom":"Erloy","codeDepartement":"02","centre":{"type":"Point","coordinates":[3.8394,49.9204]}},{"code":"02286","nom":"Esquéhéries","codeDepartement":"02","centre":{"type":"Point","coordinates":[3.7584,49.9779]}},{"code":"02287","nom":"Essigny-le-Grand","codeDepartement":"02","centre":{"type":"Point","coordinates":[3.2732,49.7742]}},{"code":"02288","nom":"Essigny-le-Petit","codeDepartement":"02","centre":{"type":"Point","coordinates":[3.3686,49.8985]}},{"code":"02289","nom":"Essises","codeDepartement":"02","centre":{"type":"Point","coordinates":[3.4162,48.9674]}},{"code":"02290","nom":"Essômes-sur-Marne","codeDepartement":"02","centre":{"type":"Point","coordinates":[3.3427,49.033]}},{"code":"02291","nom":"Estrées","codeDepartement":"02","centre":{"type":"Point","coordinates":[3.2802,49.9686]}},{"code":"02292","nom":"Étampes-sur-Marne","codeDepartement":"02","centre":{"type":"Point","coordinates":[3.4175,49.0319]}},{"code":"02293","nom":"Étaves-et-Bocquiaux","codeDepartement":"02","centre":{"type":"Point","coordinates":[3.4519,49.931]}},{"code":"02294","nom":"Étouvelles","codeDepartement":"02","centre":{"type":"Point","coordinates":[3.5807,49.5171]}},{"code":"02295","nom":"Étréaupont","codeDepartement":"02","centre":{"type":"Point","coordinates":[3.9399,49.9014]}},{"code":"02296","nom":"Étreillers","codeDepartement":"02","centre":{"type":"Point","coordinates":[3.1565,49.8309]}},{"code":"02297","nom":"Étrépilly","codeDepartement":"02","centre":{"type":"Point","coordinates":[3.3515,49.0825]}},{"code":"02298","nom":"Étreux","codeDepartement":"02","centre":{"type":"Point","coordinates":[3.6554,49.9985]}},{"code":"02299","nom":"Évergnicourt","codeDepartement":"02","centre":{"type":"Point","coordinates":[4.039,49.4573]}},{"code":"02302","nom":"Faverolles","codeDepartement":"02","centre":{"type":"Point","coordinates":[3.1827,49.2255]}},{"code":"02303","nom":"Fayet","codeDepartement":"02","centre":{"type":"Point","coordinates":[3.2533,49.871]}},{"code":"02304","nom":"La Fère","codeDepartement":"02","centre":{"type":"Point","coordinates":[3.3694,49.6683]}},{"code":"02305","nom":"Fère-en-Tardenois","codeDepartement":"02","centre":{"type":"Point","coordinates":[3.5126,49.1833]}},{"code":"02306","nom":"La Ferté-Chevresis","codeDepartement":"02","centre":{"type":"Point","coordinates":[3.5506,49.7455]}},{"code":"02307","nom":"La Ferté-Milon","codeDepartement":"02","centre":{"type":"Point","coordinates":[3.1441,49.1729]}},{"code":"02308","nom":"Fesmy-le-Sart","codeDepartement":"02","centre":{"type":"Point","coordinates":[3.6972,50.0477]}},{"code":"02309","nom":"Festieux","codeDepartement":"02","centre":{"type":"Point","coordinates":[3.7609,49.5255]}},{"code":"02310","nom":"Fieulaine","codeDepartement":"02","centre":{"type":"Point","coordinates":[3.445,49.8974]}},{"code":"02312","nom":"La Flamengrie","codeDepartement":"02","centre":{"type":"Point","coordinates":[3.9205,50.0021]}},{"code":"02313","nom":"Flavigny-le-Grand-et-Beaurain","codeDepartement":"02","centre":{"type":"Point","coordinates":[3.6741,49.8868]}},{"code":"02315","nom":"Flavy-le-Martel","codeDepartement":"02","centre":{"type":"Point","coordinates":[3.1921,49.7086]}},{"code":"02316","nom":"Fleury","codeDepartement":"02","centre":{"type":"Point","coordinates":[3.1553,49.2679]}},{"code":"02317","nom":"Fluquières","codeDepartement":"02","centre":{"type":"Point","coordinates":[3.1569,49.7995]}},{"code":"02318","nom":"Folembray","codeDepartement":"02","centre":{"type":"Point","coordinates":[3.2896,49.55]}},{"code":"02319","nom":"Fonsomme","codeDepartement":"02","centre":{"type":"Point","coordinates":[3.3961,49.8998]}},{"code":"02320","nom":"Fontaine-lès-Clercs","codeDepartement":"02","centre":{"type":"Point","coordinates":[3.2127,49.8091]}},{"code":"02321","nom":"Fontaine-lès-Vervins","codeDepartement":"02","centre":{"type":"Point","coordinates":[3.9084,49.8512]}},{"code":"02322","nom":"Fontaine-Notre-Dame","codeDepartement":"02","centre":{"type":"Point","coordinates":[3.424,49.881]}},{"code":"02323","nom":"Fontaine-Uterte","codeDepartement":"02","centre":{"type":"Point","coordinates":[3.3689,49.9266]}},{"code":"02324","nom":"Fontenelle","codeDepartement":"02","centre":{"type":"Point","coordinates":[3.8489,50.0299]}},{"code":"02326","nom":"Fontenoy","codeDepartement":"02","centre":{"type":"Point","coordinates":[3.1936,49.4108]}},{"code":"02327","nom":"Foreste","codeDepartement":"02","centre":{"type":"Point","coordinates":[3.0952,49.8056]}},{"code":"02328","nom":"Fossoy","codeDepartement":"02","centre":{"type":"Point","coordinates":[3.4821,49.0426]}},{"code":"02329","nom":"Fourdrain","codeDepartement":"02","centre":{"type":"Point","coordinates":[3.4569,49.617]}},{"code":"02330","nom":"Francilly-Selency","codeDepartement":"02","centre":{"type":"Point","coordinates":[3.2296,49.8558]}},{"code":"02331","nom":"Franqueville","codeDepartement":"02","centre":{"type":"Point","coordinates":[3.7974,49.8187]}},{"code":"02332","nom":"Fresnes-en-Tardenois","codeDepartement":"02","centre":{"type":"Point","coordinates":[3.5511,49.1448]}},{"code":"02333","nom":"Fresnes-sous-Coucy","codeDepartement":"02","centre":{"type":"Point","coordinates":[3.3678,49.5523]}},{"code":"02334","nom":"Fresnoy-le-Grand","codeDepartement":"02","centre":{"type":"Point","coordinates":[3.417,49.9553]}},{"code":"02335","nom":"Fressancourt","codeDepartement":"02","centre":{"type":"Point","coordinates":[3.4289,49.629]}},{"code":"02336","nom":"Frières-Faillouël","codeDepartement":"02","centre":{"type":"Point","coordinates":[3.2366,49.6841]}},{"code":"02337","nom":"Froidestrées","codeDepartement":"02","centre":{"type":"Point","coordinates":[3.9097,49.9432]}},{"code":"02338","nom":"Froidmont-Cohartille","codeDepartement":"02","centre":{"type":"Point","coordinates":[3.72,49.6793]}},{"code":"02339","nom":"Gandelu","codeDepartement":"02","centre":{"type":"Point","coordinates":[3.1782,49.0796]}},{"code":"02340","nom":"Gauchy","codeDepartement":"02","centre":{"type":"Point","coordinates":[3.2846,49.8233]}},{"code":"02341","nom":"Gercy","codeDepartement":"02","centre":{"type":"Point","coordinates":[3.8726,49.8145]}},{"code":"02342","nom":"Gergny","codeDepartement":"02","centre":{"type":"Point","coordinates":[3.93,49.9339]}},{"code":"02343","nom":"Germaine","codeDepartement":"02","centre":{"type":"Point","coordinates":[3.1207,49.8135]}},{"code":"02345","nom":"Gibercourt","codeDepartement":"02","centre":{"type":"Point","coordinates":[3.284,49.7426]}},{"code":"02346","nom":"Gizy","codeDepartement":"02","centre":{"type":"Point","coordinates":[3.7661,49.6118]}},{"code":"02347","nom":"Gland","codeDepartement":"02","centre":{"type":"Point","coordinates":[3.4602,49.059]}},{"code":"02349","nom":"Goudelancourt-lès-Berrieux","codeDepartement":"02","centre":{"type":"Point","coordinates":[3.8568,49.4923]}},{"code":"02350","nom":"Goudelancourt-lès-Pierrepont","codeDepartement":"02","centre":{"type":"Point","coordinates":[3.8529,49.6798]}},{"code":"02351","nom":"Goussancourt","codeDepartement":"02","centre":{"type":"Point","coordinates":[3.6541,49.1636]}},{"code":"02352","nom":"Gouy","codeDepartement":"02","centre":{"type":"Point","coordinates":[3.2618,49.9938]}},{"code":"02353","nom":"Grandlup-et-Fay","codeDepartement":"02","centre":{"type":"Point","coordinates":[3.7378,49.6538]}},{"code":"02354","nom":"Grandrieux","codeDepartement":"02","centre":{"type":"Point","coordinates":[4.1862,49.7312]}},{"code":"02355","nom":"Gricourt","codeDepartement":"02","centre":{"type":"Point","coordinates":[3.2394,49.8876]}},{"code":"02356","nom":"Grisolles","codeDepartement":"02","centre":{"type":"Point","coordinates":[3.3718,49.1298]}},{"code":"02357","nom":"Gronard","codeDepartement":"02","centre":{"type":"Point","coordinates":[3.8775,49.7972]}},{"code":"02358","nom":"Grougis","codeDepartement":"02","centre":{"type":"Point","coordinates":[3.5281,49.9501]}},{"code":"02359","nom":"Grugies","codeDepartement":"02","centre":{"type":"Point","coordinates":[3.2787,49.8106]}},{"code":"02360","nom":"Villeneuve-sur-Aisne","codeDepartement":"02","centre":{"type":"Point","coordinates":[3.9744,49.4409]}},{"code":"02361","nom":"Guise","codeDepartement":"02","centre":{"type":"Point","coordinates":[3.6229,49.8973]}},{"code":"02362","nom":"Guivry","codeDepartement":"02","centre":{"type":"Point","coordinates":[3.1196,49.6504]}},{"code":"02363","nom":"Guny","codeDepartement":"02","centre":{"type":"Point","coordinates":[3.2641,49.5117]}},{"code":"02364","nom":"Guyencourt","codeDepartement":"02","centre":{"type":"Point","coordinates":[3.8412,49.3579]}},{"code":"02366","nom":"Hannapes","codeDepartement":"02","centre":{"type":"Point","coordinates":[3.6163,49.9762]}},{"code":"02367","nom":"Happencourt","codeDepartement":"02","centre":{"type":"Point","coordinates":[3.1838,49.7814]}},{"code":"02368","nom":"Haramont","codeDepartement":"02","centre":{"type":"Point","coordinates":[3.0219,49.2862]}},{"code":"02369","nom":"Harcigny","codeDepartement":"02","centre":{"type":"Point","coordinates":[3.9767,49.8081]}},{"code":"02370","nom":"Hargicourt","codeDepartement":"02","centre":{"type":"Point","coordinates":[3.1884,49.967]}},{"code":"02371","nom":"Harly","codeDepartement":"02","centre":{"type":"Point","coordinates":[3.3347,49.8404]}},{"code":"02372","nom":"Hartennes-et-Taux","codeDepartement":"02","centre":{"type":"Point","coordinates":[3.3588,49.2795]}},{"code":"02373","nom":"Hary","codeDepartement":"02","centre":{"type":"Point","coordinates":[3.9154,49.798]}},{"code":"02374","nom":"Lehaucourt","codeDepartement":"02","centre":{"type":"Point","coordinates":[3.2777,49.9122]}},{"code":"02375","nom":"Hautevesnes","codeDepartement":"02","centre":{"type":"Point","coordinates":[3.2317,49.114]}},{"code":"02376","nom":"Hauteville","codeDepartement":"02","centre":{"type":"Point","coordinates":[3.525,49.888]}},{"code":"02377","nom":"Haution","codeDepartement":"02","centre":{"type":"Point","coordinates":[3.8352,49.8709]}},{"code":"02378","nom":"La Hérie","codeDepartement":"02","centre":{"type":"Point","coordinates":[4.0414,49.8828]}},{"code":"02379","nom":"Le Hérie-la-Viéville","codeDepartement":"02","centre":{"type":"Point","coordinates":[3.6544,49.8214]}},{"code":"02380","nom":"Hinacourt","codeDepartement":"02","centre":{"type":"Point","coordinates":[3.2943,49.7462]}},{"code":"02381","nom":"Hirson","codeDepartement":"02","centre":{"type":"Point","coordinates":[4.1132,49.938]}},{"code":"02382","nom":"Holnon","codeDepartement":"02","centre":{"type":"Point","coordinates":[3.2007,49.861]}},{"code":"02383","nom":"Homblières","codeDepartement":"02","centre":{"type":"Point","coordinates":[3.3709,49.8569]}},{"code":"02384","nom":"Houry","codeDepartement":"02","centre":{"type":"Point","coordinates":[3.8502,49.7871]}},{"code":"02385","nom":"Housset","codeDepartement":"02","centre":{"type":"Point","coordinates":[3.6958,49.7941]}},{"code":"02386","nom":"Iron","codeDepartement":"02","centre":{"type":"Point","coordinates":[3.6656,49.9517]}},{"code":"02387","nom":"Itancourt","codeDepartement":"02","centre":{"type":"Point","coordinates":[3.3501,49.803]}},{"code":"02388","nom":"Iviers","codeDepartement":"02","centre":{"type":"Point","coordinates":[4.1392,49.7881]}},{"code":"02389","nom":"Jaulgonne","codeDepartement":"02","centre":{"type":"Point","coordinates":[3.5315,49.0884]}},{"code":"02390","nom":"Jeancourt","codeDepartement":"02","centre":{"type":"Point","coordinates":[3.1459,49.9308]}},{"code":"02391","nom":"Jeantes","codeDepartement":"02","centre":{"type":"Point","coordinates":[4.071,49.8142]}},{"code":"02392","nom":"Joncourt","codeDepartement":"02","centre":{"type":"Point","coordinates":[3.3043,49.9604]}},{"code":"02393","nom":"Jouaignes","codeDepartement":"02","centre":{"type":"Point","coordinates":[3.5294,49.2947]}},{"code":"02395","nom":"Jumencourt","codeDepartement":"02","centre":{"type":"Point","coordinates":[3.3484,49.5151]}},{"code":"02396","nom":"Jumigny","codeDepartement":"02","centre":{"type":"Point","coordinates":[3.7256,49.4081]}},{"code":"02397","nom":"Jussy","codeDepartement":"02","centre":{"type":"Point","coordinates":[3.2357,49.7168]}},{"code":"02398","nom":"Juvigny","codeDepartement":"02","centre":{"type":"Point","coordinates":[3.3178,49.4488]}},{"code":"02399","nom":"Juvincourt-et-Damary","codeDepartement":"02","centre":{"type":"Point","coordinates":[3.8904,49.4504]}},{"code":"02400","nom":"Laffaux","codeDepartement":"02","centre":{"type":"Point","coordinates":[3.4356,49.4506]}},{"code":"02401","nom":"Laigny","codeDepartement":"02","centre":{"type":"Point","coordinates":[3.8573,49.8634]}},{"code":"02402","nom":"Lanchy","codeDepartement":"02","centre":{"type":"Point","coordinates":[3.0727,49.8297]}},{"code":"02403","nom":"Landifay-et-Bertaignemont","codeDepartement":"02","centre":{"type":"Point","coordinates":[3.604,49.8293]}},{"code":"02404","nom":"Landouzy-la-Cour","codeDepartement":"02","centre":{"type":"Point","coordinates":[3.9934,49.8445]}},{"code":"02405","nom":"Landouzy-la-Ville","codeDepartement":"02","centre":{"type":"Point","coordinates":[4.0489,49.8578]}},{"code":"02406","nom":"Landricourt","codeDepartement":"02","centre":{"type":"Point","coordinates":[3.3717,49.5104]}},{"code":"02407","nom":"Laniscourt","codeDepartement":"02","centre":{"type":"Point","coordinates":[3.5336,49.5461]}},{"code":"02408","nom":"Laon","codeDepartement":"02","centre":{"type":"Point","coordinates":[3.613,49.5711]}},{"code":"02409","nom":"Lappion","codeDepartement":"02","centre":{"type":"Point","coordinates":[3.9689,49.5929]}},{"code":"02410","nom":"Largny-sur-Automne","codeDepartement":"02","centre":{"type":"Point","coordinates":[3.0559,49.2627]}},{"code":"02411","nom":"Latilly","codeDepartement":"02","centre":{"type":"Point","coordinates":[3.3123,49.154]}},{"code":"02412","nom":"Launoy","codeDepartement":"02","centre":{"type":"Point","coordinates":[3.4034,49.2632]}},{"code":"02413","nom":"Laval-en-Laonnois","codeDepartement":"02","centre":{"type":"Point","coordinates":[3.5862,49.503]}},{"code":"02414","nom":"Lavaqueresse","codeDepartement":"02","centre":{"type":"Point","coordinates":[3.7163,49.9453]}},{"code":"02415","nom":"Laversine","codeDepartement":"02","centre":{"type":"Point","coordinates":[3.1475,49.3541]}},{"code":"02416","nom":"Lemé","codeDepartement":"02","centre":{"type":"Point","coordinates":[3.758,49.8422]}},{"code":"02417","nom":"Lempire","codeDepartement":"02","centre":{"type":"Point","coordinates":[3.1753,49.9976]}},{"code":"02418","nom":"Lerzy","codeDepartement":"02","centre":{"type":"Point","coordinates":[3.8831,49.9504]}},{"code":"02419","nom":"Leschelle","codeDepartement":"02","centre":{"type":"Point","coordinates":[3.7739,49.963]}},{"code":"02420","nom":"Lesdins","codeDepartement":"02","centre":{"type":"Point","coordinates":[3.3122,49.9036]}},{"code":"02421","nom":"Lesges","codeDepartement":"02","centre":{"type":"Point","coordinates":[3.4982,49.308]}},{"code":"02422","nom":"Lesquielles-Saint-Germain","codeDepartement":"02","centre":{"type":"Point","coordinates":[3.6277,49.9312]}},{"code":"02423","nom":"Leuilly-sous-Coucy","codeDepartement":"02","centre":{"type":"Point","coordinates":[3.3501,49.4755]}},{"code":"02424","nom":"Leury","codeDepartement":"02","centre":{"type":"Point","coordinates":[3.3415,49.4246]}},{"code":"02425","nom":"Leuze","codeDepartement":"02","centre":{"type":"Point","coordinates":[4.1675,49.8586]}},{"code":"02426","nom":"Levergies","codeDepartement":"02","centre":{"type":"Point","coordinates":[3.3122,49.9342]}},{"code":"02427","nom":"Lhuys","codeDepartement":"02","centre":{"type":"Point","coordinates":[3.5431,49.2734]}},{"code":"02428","nom":"Licy-Clignon","codeDepartement":"02","centre":{"type":"Point","coordinates":[3.2654,49.1026]}},{"code":"02429","nom":"Lierval","codeDepartement":"02","centre":{"type":"Point","coordinates":[3.6218,49.488]}},{"code":"02430","nom":"Liesse-Notre-Dame","codeDepartement":"02","centre":{"type":"Point","coordinates":[3.8271,49.6115]}},{"code":"02431","nom":"Liez","codeDepartement":"02","centre":{"type":"Point","coordinates":[3.3002,49.6933]}},{"code":"02432","nom":"Limé","codeDepartement":"02","centre":{"type":"Point","coordinates":[3.5559,49.3249]}},{"code":"02433","nom":"Lislet","codeDepartement":"02","centre":{"type":"Point","coordinates":[4.0198,49.6763]}},{"code":"02435","nom":"Logny-lès-Aubenton","codeDepartement":"02","centre":{"type":"Point","coordinates":[4.2235,49.832]}},{"code":"02438","nom":"Longpont","codeDepartement":"02","centre":{"type":"Point","coordinates":[3.2202,49.2857]}},{"code":"02439","nom":"Les Septvallons","codeDepartement":"02","centre":{"type":"Point","coordinates":[3.6776,49.3555]}},{"code":"02440","nom":"Lor","codeDepartement":"02","centre":{"type":"Point","coordinates":[4.0544,49.5308]}},{"code":"02441","nom":"Louâtre","codeDepartement":"02","centre":{"type":"Point","coordinates":[3.2429,49.2566]}},{"code":"02442","nom":"Loupeigne","codeDepartement":"02","centre":{"type":"Point","coordinates":[3.5251,49.2437]}},{"code":"02443","nom":"Lucy-le-Bocage","codeDepartement":"02","centre":{"type":"Point","coordinates":[3.2755,49.0556]}},{"code":"02444","nom":"Lugny","codeDepartement":"02","centre":{"type":"Point","coordinates":[3.8114,49.7802]}},{"code":"02445","nom":"Luzoir","codeDepartement":"02","centre":{"type":"Point","coordinates":[3.9597,49.9315]}},{"code":"02446","nom":"Ly-Fontaine","codeDepartement":"02","centre":{"type":"Point","coordinates":[3.311,49.7329]}},{"code":"02447","nom":"Maast-et-Violaine","codeDepartement":"02","centre":{"type":"Point","coordinates":[3.4535,49.2935]}},{"code":"02448","nom":"Mâchecourt","codeDepartement":"02","centre":{"type":"Point","coordinates":[3.8415,49.6509]}},{"code":"02449","nom":"Macogny","codeDepartement":"02","centre":{"type":"Point","coordinates":[3.2186,49.157]}},{"code":"02450","nom":"Macquigny","codeDepartement":"02","centre":{"type":"Point","coordinates":[3.569,49.8714]}},{"code":"02451","nom":"Magny-la-Fosse","codeDepartement":"02","centre":{"type":"Point","coordinates":[3.274,49.9371]}},{"code":"02452","nom":"Maissemy","codeDepartement":"02","centre":{"type":"Point","coordinates":[3.1857,49.8924]}},{"code":"02453","nom":"Maizy","codeDepartement":"02","centre":{"type":"Point","coordinates":[3.7134,49.3754]}},{"code":"02454","nom":"La Malmaison","codeDepartement":"02","centre":{"type":"Point","coordinates":[3.9951,49.5168]}},{"code":"02455","nom":"Malzy","codeDepartement":"02","centre":{"type":"Point","coordinates":[3.7317,49.921]}},{"code":"02456","nom":"Manicamp","codeDepartement":"02","centre":{"type":"Point","coordinates":[3.1805,49.5653]}},{"code":"02457","nom":"Marchais","codeDepartement":"02","centre":{"type":"Point","coordinates":[3.819,49.5867]}},{"code":"02458","nom":"Dhuys et Morin-en-Brie","codeDepartement":"02","centre":{"type":"Point","coordinates":[3.5092,48.8917]}},{"code":"02459","nom":"Marcy","codeDepartement":"02","centre":{"type":"Point","coordinates":[3.4159,49.8518]}},{"code":"02460","nom":"Marcy-sous-Marle","codeDepartement":"02","centre":{"type":"Point","coordinates":[3.7346,49.7487]}},{"code":"02461","nom":"Marest-Dampcourt","codeDepartement":"02","centre":{"type":"Point","coordinates":[3.1488,49.5942]}},{"code":"02462","nom":"Mareuil-en-Dôle","codeDepartement":"02","centre":{"type":"Point","coordinates":[3.5627,49.2446]}},{"code":"02463","nom":"Marfontaine","codeDepartement":"02","centre":{"type":"Point","coordinates":[3.7641,49.8085]}},{"code":"02464","nom":"Margival","codeDepartement":"02","centre":{"type":"Point","coordinates":[3.4072,49.4322]}},{"code":"02465","nom":"Marigny-en-Orxois","codeDepartement":"02","centre":{"type":"Point","coordinates":[3.2195,49.0551]}},{"code":"02466","nom":"Marizy-Sainte-Geneviève","codeDepartement":"02","centre":{"type":"Point","coordinates":[3.1971,49.181]}},{"code":"02467","nom":"Marizy-Saint-Mard","codeDepartement":"02","centre":{"type":"Point","coordinates":[3.227,49.1823]}},{"code":"02468","nom":"Marle","codeDepartement":"02","centre":{"type":"Point","coordinates":[3.7654,49.7444]}},{"code":"02469","nom":"Marly-Gomont","codeDepartement":"02","centre":{"type":"Point","coordinates":[3.7856,49.8894]}},{"code":"02470","nom":"Martigny","codeDepartement":"02","centre":{"type":"Point","coordinates":[4.1357,49.8672]}},{"code":"02471","nom":"Martigny-Courpierre","codeDepartement":"02","centre":{"type":"Point","coordinates":[3.6872,49.4919]}},{"code":"02472","nom":"Mauregny-en-Haye","codeDepartement":"02","centre":{"type":"Point","coordinates":[3.7968,49.5437]}},{"code":"02473","nom":"Mayot","codeDepartement":"02","centre":{"type":"Point","coordinates":[3.3962,49.7093]}},{"code":"02474","nom":"Mennessis","codeDepartement":"02","centre":{"type":"Point","coordinates":[3.2726,49.6915]}},{"code":"02476","nom":"Mennevret","codeDepartement":"02","centre":{"type":"Point","coordinates":[3.5568,49.9925]}},{"code":"02477","nom":"Mercin-et-Vaux","codeDepartement":"02","centre":{"type":"Point","coordinates":[3.2693,49.3675]}},{"code":"02478","nom":"Merlieux-et-Fouquerolles","codeDepartement":"02","centre":{"type":"Point","coordinates":[3.499,49.5166]}},{"code":"02480","nom":"Mesbrecourt-Richecourt","codeDepartement":"02","centre":{"type":"Point","coordinates":[3.5367,49.7132]}},{"code":"02481","nom":"Mesnil-Saint-Laurent","codeDepartement":"02","centre":{"type":"Point","coordinates":[3.3657,49.8312]}},{"code":"02482","nom":"Meurival","codeDepartement":"02","centre":{"type":"Point","coordinates":[3.7621,49.3583]}},{"code":"02483","nom":"Mézières-sur-Oise","codeDepartement":"02","centre":{"type":"Point","coordinates":[3.3864,49.7903]}},{"code":"02484","nom":"Mézy-Moulins","codeDepartement":"02","centre":{"type":"Point","coordinates":[3.5125,49.0634]}},{"code":"02485","nom":"Missy-aux-Bois","codeDepartement":"02","centre":{"type":"Point","coordinates":[3.2491,49.3353]}},{"code":"02486","nom":"Missy-lès-Pierrepont","codeDepartement":"02","centre":{"type":"Point","coordinates":[3.7862,49.6291]}},{"code":"02487","nom":"Missy-sur-Aisne","codeDepartement":"02","centre":{"type":"Point","coordinates":[3.4399,49.3849]}},